Type,Name,Ident,Latitude,Longitude,Elevation,Magnetic Declination,Tags,Description,Region,Visible From,Last Edit,Import Filenam
Mountain,Morning,,-78.5,163.53,8892.176955214843,,,,,,,Volcanoes
Mountain,Royal Society Range,,-78.25,163.33,1191.078684716797,,,,,,,Volcanoes
Mountain,Erebus,,-77.53,167.17,11772.702411103515,,,,,,,Volcanoes
Mountain,Waesche,,-77.17,-126.88,9890.420584394531,,,,,,,Volcanoes
Mountain,Unnamed,,-76.83,163,-48.06199566,,,,,,,Volcanoes
Mountain,Takahe,,-76.28,-112.08,11182.023854277344,,,,,,,Volcanoes
Mountain,Berlin,,-76.05,-136,9448.644585,,,,,,,Volcanoes
Mountain,Andrus,,-75.8,-132.33,9081.401965371093,,,,,,,Volcanoes
Mountain,Toney Mountain,,-75.8,-115.83,11039.686981796875,,,,,,,Volcanoes
Mountain,Melbourne,,-74.35,164.7,8317.288242,,,,,,,Volcanoes
Mountain,Hudson Mountains,,-74.33,-99.42,1618.1309534472657,,,,,,,Volcanoes
Mountain,Unnamed,,-73.45,164.58,4492.557699433593,,,,,,,Volcanoes
Mountain,Siple,,-73.43,-126.67,5873.123717,,,,,,,Volcanoes
Mountain,Peter I Island,,-68.85,-90.58,0,,,,,,,Volcanoes
Mountain,Sturge Island,,-67.4,164.83,0,,,,,,,Volcanoes
Mountain,Buckle Island,,-66.78,163.25,0,,,,,,,Volcanoes
Mountain,Young Island,,-66.42,162.47,29.52756,,,,,,,Volcanoes
Mountain,Lindenberg Island,,-65.03,-60.05,687.4105718518066,,,,,,,Volcanoes
Mountain,Seal Nunataks Group,,-65.03,-60.05,687.4105718518066,,,,,,,Volcanoes
Mountain,Mount Haddington Volc Field,,-64.15,-57.75,3820.7556477880876,,,,,,,Volcanoes
Mountain,Paulet,,-63.579,-55.78,933.4426337548828,,,,,,,Volcanoes
Mountain,Deception Island,,-62.957,-60.637,-474.4425247,,,,,,,Volcanoes
Mountain,Penguin Island,,-62.1,-57.93,0,,,,,,,Volcanoes
Mountain,Bridgeman Island,,-62.063,-56.713,0,,,,,,,Volcanoes
Mountain,Melville,,-62.02,-57.67,1238.952837,,,,,,,Volcanoes
Mountain,Southern Thule,,-59.442,-27.225,1.273350904222727,,,,,,,Volcanoes
Mountain,Bristol Island,,-59.017,-26.533,-169.2540931,,,,,,,Volcanoes
Mountain,Montagu Island,,-58.445,-26.374,1449.4043849072266,,,,,,,Volcanoes
Mountain,Saunders,,-57.8,-26.483,445.56541567077625,,,,,,,Volcanoes
Mountain,Candlemas Island,,-57.08,-26.67,805.9351220300293,,,,,,,Volcanoes
Mountain,Hodson,,-56.712,-27.176,2475.419611809082,,,,,,,Volcanoes
Mountain,Leskov Island,,-56.656,-28.14,-175.9093258,,,,,,,Volcanoes
Mountain,Zavodovski,,-56.3,-27.57,1013.1898338159182,,,,,,,Volcanoes
Mountain,Udintsev Transform,,-56.153,-143.373,-18676.41879,,,,,,,Volcanoes
Mountain,Protector Seamounts,,-55.912,-28.167,-1740.467998,,,,,,,Volcanoes
Mountain,Fueguino,,-54.97,-70.262,474.2003264697266,,,,,,,Volcanoes
Mountain,Bouvet,,-54.408,3.351,2426.6251266723634,,,,,,,Volcanoes
Mountain,Hollister Ridge,,-53.998,-139.845,-1171.855513,,,,,,,Volcanoes
Mountain,Thompson Island,,-53.93,5.5,-8061.482044,,,,,,,Volcanoes
Mountain,Unnamed,,-53.9,-140.3,-7890.654088,,,,,,,Volcanoes
Mountain,Heard,,-53.106,73.513,8180.403683330078,,,,,,,Volcanoes
Mountain,McDonald Islands,,-53.03,72.6,61.01880056045533,,,,,,,Volcanoes
Mountain,Pali-Aike Volcanic Field,,-52.082,-69.698,835.8156166308594,,,,,,,Volcanoes
Mountain,Reclus,,-50.964,-73.58,4249.036229052735,,,,,,,Volcanoes
Mountain,Aguilera,,-50.33,-73.75,3140.4929778051755,,,,,,,Volcanoes
Mountain,Antipodes Island,,-49.683,178.767,610.0157685131837,,,,,,,Volcanoes
Mountain,Kerguelen Islands,,-49.58,69.5,2527.1304881665037,,,,,,,Volcanoes
Mountain,Lautaro,,-49.019,-73.504,11606.391216835937,,,,,,,Volcanoes
Mountain,Arenales,,-47.2,-73.483,9060.700473720703,,,,,,,Volcanoes
Mountain,Marion Island,,-46.9,37.75,2891.5081799267577,,,,,,,Volcanoes
Mountain,Prince Edward Island,,-46.63,37.95,1687.6499585913086,,,,,,,Volcanoes
Mountain,R?Â¡o Murta,,-46.167,-72.667,1749.1589002075195,,,,,,,Volcanoes
Mountain,Meullin,,-45.22,-73.05,3376.729277285156,,,,,,,Volcanoes
Mountain,Maca,,-45.1,-73.17,5992.576810908203,,,,,,,Volcanoes
Mountain,Cay,,-45.059,-72.984,6473.913925561525,,,,,,,Volcanoes
Mountain,Mentolat,,-44.7,-73.08,4767.858702875975,,,,,,,Volcanoes
Mountain,Puyuhuapi,,-44.3,-72.53,529.4333399584963,,,,,,,Volcanoes
Mountain,Melimoyu,,-44.08,-72.88,6389.8544153564435,,,,,,,Volcanoes
Mountain,Yanteles,,-43.469,-72.782,5858.205747460937,,,,,,,Volcanoes
Mountain,Palena Volcanic Group,,-43.42,-72.83,1450.8705903808593,,,,,,,Volcanoes
Mountain,Corcovado,,-43.189,-72.794,5947.979894624025,,,,,,,Volcanoes
Mountain,Chaiten,,-42.835,-72.651,2522.037416599121,,,,,,,Volcanoes
Mountain,Michinmahuida,,-42.799,-72.445,8033.258489921875,,,,,,,Volcanoes
Mountain,Huequi,,-42.377,-72.578,3664.0422721972654,,,,,,,Volcanoes
Mountain,Crater Basalt Volcanic Field,,-42.018,-70.194,3579.7408641210936,,,,,,,Volcanoes
Mountain,Apagado,,-41.88,-72.58,2951.787607529297,,,,,,,Volcanoes
Mountain,Hornopiren,,-41.874,-72.431,4524.738126152343,,,,,,,Volcanoes
Mountain,Yate,,-41.755,-72.396,5838.4169797314435,,,,,,,Volcanoes
Mountain,Calbuco,,-41.33,-72.618,6436.562331,,,,,,,Volcanoes
Mountain,Cayutue-La Vigueria,,-41.3,-72.27,1445.9009708312988,,,,,,,Volcanoes
Mountain,Cayute-La Vigueria,,-41.25,-72.27,984.0245198828125,,,,,,,Volcanoes
Mountain,Tronador,,-41.157,-71.885,9608.919546279298,,,,,,,Volcanoes
Mountain,Osorno,,-41.105,-72.496,8694.403818964844,,,,,,,Volcanoes
Mountain,Puntiagudo-Cordon Cenizos,,-40.969,-72.264,6460.427318261719,,,,,,,Volcanoes
Mountain,Antillanca Volcanic Complex,,-40.783,-72.15,5444.9468637939435,,,,,,,Volcanoes
Mountain,Puyehue-Cordon Caulle,,-40.59,-72.117,6422.309980878907,,,,,,,Volcanoes
Mountain,Carran-Los Venados,,-40.35,-72.07,1109.7326158215333,,,,,,,Volcanoes
Mountain,Mocho-Choshuenco,,-39.927,-72.027,7569.986420419922,,,,,,,Volcanoes
Mountain,Huanquihue Group,,-39.887,-71.58,6895.607195263672,,,,,,,Volcanoes
Mountain,Lanin,,-39.637,-71.502,12199.958931347655,,,,,,,Volcanoes
Mountain,Quetrupillan,,-39.496,-71.722,7718.893784,,,,,,,Volcanoes
Mountain,Villarrica,,-39.42,-71.93,7807.48928,,,,,,,Volcanoes
Mountain,Taranaki,,-39.3,174.07,6773.568117324218,,,,,,,Volcanoes
Mountain,Ruapehu,,-39.28,175.57,8263.263316015626,,,,,,,Volcanoes
Mountain,Caburgua-Huelemolle,,-39.25,-71.75,1970.9796484936523,,,,,,,Volcanoes
Mountain,Ngauruhoe,,-39.158,175.63,7233.572964,,,,,,,Volcanoes
Mountain,Tongariro,,-39.157,175.632,7220.55213,,,,,,,Volcanoes
Mountain,Sollipulli,,-38.97,-71.52,6902.570169414063,,,,,,,Volcanoes
Mountain,Taupo,,-38.781,175.893,1181.1024,,,,,,,Volcanoes
Mountain,St. Paul,,-38.72,77.53,0,,,,,,,Volcanoes
Mountain,Llaima,,-38.692,-71.729,9328.040874541015,,,,,,,Volcanoes
Mountain,Tralihue,,-38.509,-70.898,8007.410661113281,,,,,,,Volcanoes
Mountain,Maroa,,-38.42,176.08,1203.5497414758302,,,,,,,Volcanoes
Mountain,Reporoa,,-38.42,176.33,980.9711599999999,,,,,,,Volcanoes
Mountain,Lonquimay,,-38.379,-71.586,9270.714283037109,,,,,,,Volcanoes
Mountain,Tolhuaca,,-38.31,-71.645,8512.318801,,,,,,,Volcanoes
Mountain,Okataina,,-38.157,176.507,1396.9793291149902,,,,,,,Volcanoes
Mountain,Callaqui,,-37.92,-71.45,9218.25929,,,,,,,Volcanoes
Mountain,Copahue,,-37.856,-71.183,9583.151015117188,,,,,,,Volcanoes
Mountain,Amsterdam Island,,-37.83,77.52,1492.174151253662,,,,,,,Volcanoes
Mountain,Newer Volcanics Province,,-37.77,142.5,854.6048535461425,,,,,,,Volcanoes
Mountain,Trolon,,-37.738,-70.906,8189.414779521484,,,,,,,Volcanoes
Mountain,Boomerang Seamount,,-37.722,77.822,-2853.877442,,,,,,,Volcanoes
Mountain,Puesto Cortaderas,,-37.567,-69.617,3022.5931969628905,,,,,,,Volcanoes
Mountain,Whakaari/White Island,,-37.52,177.18,556.1203020690918,,,,,,,Volcanoes
Mountain,Nightingale Island,,-37.42,-12.48,308.5170303909302,,,,,,,Volcanoes
Mountain,Antuco,,-37.406,-71.349,8891.818914326172,,,,,,,Volcanoes
Mountain,Mayor Island,,-37.28,176.25,634.9052171801756,,,,,,,Volcanoes
Mountain,Tromen Volcanic Plateau,,-37.144,-70.033,12651.432472236327,,,,,,,Volcanoes
Mountain,Tromen,,-37.142,-70.03,12248.042941611327,,,,,,,Volcanoes
Mountain,Tristan da Cunha,,-37.092,-12.28,3663.9389449609375,,,,,,,Volcanoes
Mountain,Auckland Volcanic Field,,-36.89,174.81,165.1851952,,,,,,,Volcanoes
Mountain,Domuyo,,-36.638,-70.432,15355.503843984376,,,,,,,Volcanoes
Mountain,Clark,,-36.446,177.839,-4420.000353,,,,,,,Volcanoes
Mountain,Payun Matru,,-36.422,-69.241,11965.694459960938,,,,,,,Volcanoes
Mountain,Tangaroa,,-36.321,178.028,-4838.455635,,,,,,,Volcanoes
Mountain,Rumble V,,-36.142,178.196,-2474.37873,,,,,,,Volcanoes
Mountain,Rumble IV,,-36.13,178.05,-4936.321346,,,,,,,Volcanoes
Mountain,San Pedro-Pellado,,-35.989,-70.849,11125.936388623048,,,,,,,Volcanoes
Mountain,Whangarei,,-35.75,174.27,456.03676,,,,,,,Volcanoes
Mountain,Rumble III,,-35.745,178.478,-3511.291376,,,,,,,Volcanoes
Mountain,Descabezado Grande,,-35.58,-70.75,12580.775065273438,,,,,,,Volcanoes
Mountain,Calabozos,,-35.558,-70.496,11038.94126352539,,,,,,,Volcanoes
Mountain,Rumble II West,,-35.353,178.527,-4161.94859,,,,,,,Volcanoes
Mountain,Kaikohe-Bay of Islands,,-35.3,173.9,272.80548047546387,,,,,,,Volcanoes
Mountain,Planchon-Peteroa,,-35.223,-70.568,12882.523435791016,,,,,,,Volcanoes
Mountain,Infiernillo,,-35.123,-69.9,9827.481481689452,,,,,,,Volcanoes
Mountain,Healy,,-35.004,178.973,-3825.926415,,,,,,,Volcanoes
Mountain,Risco Plateado,,-34.917,-69.981,15748.584680566406,,,,,,,Volcanoes
Mountain,Brothers,,-34.875,179.075,-5241.277667,,,,,,,Volcanoes
Mountain,Tinguiririca,,-34.814,-70.352,13926.369619589843,,,,,,,Volcanoes
Mountain,Palomo,,-34.608,-70.295,15367.98000703125,,,,,,,Volcanoes
Mountain,Maipo,,-34.164,-69.832,17246.24809,,,,,,,Volcanoes
Mountain,San Jose,,-33.789,-69.895,19169.661366894532,,,,,,,Volcanoes
Mountain,Robinson Crusoe,,-33.658,-78.85,810.9800843560791,,,,,,,Volcanoes
Mountain,Unnamed,,-33.622,-78.78,-35.31944521,,,,,,,Volcanoes
Mountain,Unnamed,,-33.62,-76.83,-12623.82007,,,,,,,Volcanoes
Mountain,Tupungatito,,-33.425,-69.797,19389.017880742187,,,,,,,Volcanoes
Mountain,Walvis Ridge at 33??S,,-32.958,-5.22,-4474.566345,,,,,,,Volcanoes
Mountain,Wright,,-31.85,-179.18,-5535.553636,,,,,,,Volcanoes
Mountain,Havre Seamount,,-31.08,-179.033,-2777.714655,,,,,,,Volcanoes
Mountain,Curtis Island,,-30.543,-178.556,144.62308770751952,,,,,,,Volcanoes
Mountain,Brimstone Island,,-30.23,-178.92,-6989.656607,,,,,,,Volcanoes
Mountain,Macauley,,-30.21,-178.475,-3300.251904,,,,,,,Volcanoes
Mountain,Giggenbach,,-30.036,-178.712,-500.6931996,,,,,,,Volcanoes
Mountain,Raoul Island,,-29.27,-177.92,393.5963964382936,,,,,,,Volcanoes
Mountain,Unnamed,,-29.18,-177.87,-2618.441127,,,,,,,Volcanoes
Mountain,Macdonald,,-28.98,-140.25,-106.7396884,,,,,,,Volcanoes
Mountain,Copiapo,,-27.3,-69.13,19205.056952734376,,,,,,,Volcanoes
Mountain,Tipas,,-27.196,-68.561,21850.210173144533,,,,,,,Volcanoes
Mountain,Rapa Nui,,-27.114,-109.356,670.1460124121094,,,,,,,Volcanoes
Mountain,Falso Azufre,,-26.8,-68.37,19272.27732736328,,,,,,,Volcanoes
Mountain,Peinado,,-26.623,-68.116,19122.347104492186,,,,,,,Volcanoes
Mountain,San Felix,,-26.27,-80.12,-61.4946365,,,,,,,Volcanoes
Mountain,Antofagasta Volcanic Field,,-26.12,-67.4,10954.497279882813,,,,,,,Volcanoes
Mountain,Monowai,,-25.887,-177.188,-1389.369258,,,,,,,Volcanoes
Mountain,Unnamed,,-25.78,168.63,-7960.890176,,,,,,,Volcanoes
Mountain,Adams Seamount,,-25.37,-129.27,-2182.876376,,,,,,,Volcanoes
Mountain,Cordon del Azufre,,-25.336,-68.521,17938.745627148437,,,,,,,Volcanoes
Mountain,Lastarria,,-25.168,-68.507,18664.855753320313,,,,,,,Volcanoes
Mountain,Corrida de Cori Volcanic Field,,-25.083,-68.367,17821.301807773438,,,,,,,Volcanoes
Mountain,Unnamed,,-25.078,-68.266,15184.29141,,,,,,,Volcanoes
Mountain,Unnamed,,-24.8,-177.02,-3136.508872,,,,,,,Volcanoes
Mountain,Llullaillaco,,-24.72,-68.53,21141.351690507814,,,,,,,Volcanoes
Mountain,Socompa,,-24.396,-68.246,19702.788255058593,,,,,,,Volcanoes
Mountain,Aracar,,-24.29,-67.783,19892.213511796876,,,,,,,Volcanoes
Mountain,Pular,,-24.188,-68.054,19805.154307792967,,,,,,,Volcanoes
Mountain,Tuzgle,,-24.05,-66.48,17296.89926269531,,,,,,,Volcanoes
Mountain,Tilocalar,,-23.97,-68.13,9822.264657734375,,,,,,,Volcanoes
Mountain,Caichinque,,-23.949,-67.74,14596.26492328125,,,,,,,Volcanoes
Mountain,Miniques,,-23.82,-67.77,17313.212150253905,,,,,,,Volcanoes
Mountain,Cordon de Puntas Negras,,-23.743,-67.534,18773.94048,,,,,,,Volcanoes
Mountain,Chiliques,,-23.58,-67.7,18735.805520292968,,,,,,,Volcanoes
Mountain,Lascar,,-23.37,-67.73,17882.91367613281,,,,,,,Volcanoes
Mountain,Acamarachi,,-23.292,-67.618,19688.47142542969,,,,,,,Volcanoes
Mountain,Colachi,,-23.236,-67.645,17623.136188222656,,,,,,,Volcanoes
Mountain,Purico Complex,,-23,-67.75,17253.8863,,,,,,,Volcanoes
Mountain,Guayaques,,-22.895,-67.566,17413.047086191407,,,,,,,Volcanoes
Mountain,Licancabur,,-22.83,-67.88,18631.48506091797,,,,,,,Volcanoes
Mountain,Sairecabur,,-22.719,-67.891,19513.181975410156,,,,,,,Volcanoes
Mountain,Putana,,-22.557,-67.853,19275.851328359375,,,,,,,Volcanoes
Mountain,Hunter Island,,-22.4,172.05,0,,,,,,,Volcanoes
Mountain,Matthew Island,,-22.33,171.32,-161.5992921,,,,,,,Volcanoes
Mountain,San Pedro-San Pablo,,-21.888,-68.391,20110.27242779297,,,,,,,Volcanoes
Mountain,Unnamed,,-21.338,-175.65,-221.8454287,,,,,,,Volcanoes
Mountain,Unnamed,,-21.15,-175.75,-835.8967666,,,,,,,Volcanoes
Mountain,Unnamed,,-21.07,-175.33,65.36149186561583,,,,,,,Volcanoes
Mountain,Gemini-Oscostar,,-20.957,170.13,-4578.739022,,,,,,,Volcanoes
Mountain,Olca-Paruma,,-20.939,-68.413,18682.15385,,,,,,,Volcanoes
Mountain,Unnamed,,-20.852,-175.55,-984.4272158,,,,,,,Volcanoes
Mountain,Pampa Luxsar,,-20.85,-68.2,16381.251741699218,,,,,,,Volcanoes
Mountain,Irruputuncu,,-20.73,-68.55,16463.817412402343,,,,,,,Volcanoes
Mountain,Hunga Tonga-Hunga Ha'apai,,-20.553,-175.384,-12.16115014,,,,,,,Volcanoes
Mountain,Trindade,,-20.514,-29.331,828.1446706896971,,,,,,,Volcanoes
Mountain,Fonuafo'ou,,-20.32,-175.42,0,,,,,,,Volcanoes
Mountain,Aneityum,,-20.2,169.78,1381.5853731213379,,,,,,,Volcanoes
Mountain,Vakinankaratra,,-19.85,46.942,5095.767687363281,,,,,,,Volcanoes
Mountain,Jatun Mundo Quri Warani,,-19.78,-66.48,17722.609078339843,,,,,,,Volcanoes
Mountain,Tofua,,-19.75,-175.07,98.4252,,,,,,,Volcanoes
Mountain,Kao,,-19.668,-175.016,3291.2360015527343,,,,,,,Volcanoes
Mountain,Yasur,,-19.532,169.447,1139.1309166528317,,,,,,,Volcanoes
Mountain,Lateiki,,-19.18,-174.87,-2.285096467,,,,,,,Volcanoes
Mountain,Isluga,,-19.15,-68.83,17814.275555703123,,,,,,,Volcanoes
Mountain,Tata Sabaya,,-19.13,-68.53,16398.323964296877,,,,,,,Volcanoes
Mountain,Nabukelevu,,-19.118,177.982,2589.1638755810545,,,,,,,Volcanoes
Mountain,Itasy Volcanic Field,,-19.033,46.7,4065.2258864746095,,,,,,,Volcanoes
Mountain,Home Reef,,-18.992,-174.775,-1.605921171,,,,,,,Volcanoes
Mountain,Late,,-18.806,-174.65,1459.6431928930663,,,,,,,Volcanoes
Mountain,Traitor's Head,,-18.754,169.238,2236.9275345825195,,,,,,,Volcanoes
Mountain,Tambo Quemado,,-18.62,-68.75,13553.48325,,,,,,,Volcanoes
Mountain,Southern EPR-Segment I,,-18.53,-113.42,-8608.697481,,,,,,,Volcanoes
Mountain,Guallatiri,,-18.42,-69.092,19799.819738847655,,,,,,,Volcanoes
Mountain,McBride Volcanic Province,,-18.367,144.567,2401.4046704052735,,,,,,,Volcanoes
Mountain,Moua Pihaa,,-18.325,-148.525,-1100.063309,,,,,,,Volcanoes
Mountain,Unnamed,,-18.325,-174.365,-852.2512553,,,,,,,Volcanoes
Mountain,Southern EPR-Segment J,,-18.175,-113.35,-8842.958748,,,,,,,Volcanoes
Mountain,Parinacota,,-18.166,-69.142,20745.297592675783,,,,,,,Volcanoes
Mountain,Taapaca,,-18.1,-69.5,17418.317576230467,,,,,,,Volcanoes
Mountain,Fonualei,,-18.023,-174.317,592.479074,,,,,,,Volcanoes
Mountain,Mehetia,,-17.874,-148.068,1254.8020531604004,,,,,,,Volcanoes
Mountain,Tacora,,-17.721,-69.773,19510.593187597657,,,,,,,Volcanoes
Mountain,Rocard,,-17.662,-148.586,-8225.610551,,,,,,,Volcanoes
Mountain,Teahitia,,-17.564,-148.821,-5171.424851,,,,,,,Volcanoes
Mountain,Nguna-Emau,,-17.452,168.353,1288.6873792785645,,,,,,,Volcanoes
Mountain,Southern EPR-Segment K,,-17.436,-113.206,-8485.082863,,,,,,,Volcanoes
Mountain,Koro,,-17.32,179.4,1592.7500996679687,,,,,,,Volcanoes
Mountain,Yucamane,,-17.184,-70.196,18001.510915820312,,,,,,,Volcanoes
Mountain,Tutupaca,,-17.026,-70.372,18991.952938164064,,,,,,,Volcanoes
Mountain,NE Shepherd Islands,,-16.992,168.592,0,,,,,,,Volcanoes
Mountain,Taveuni,,-16.841,-179.964,3784.099309467775,,,,,,,Volcanoes
Mountain,Kuwae,,-16.83,168.523,-131.6706131,,,,,,,Volcanoes
Mountain,Ticsani,,-16.759,-70.598,17625.30525919922,,,,,,,Volcanoes
Mountain,East Epi,,-16.68,168.389,-652.3829892,,,,,,,Volcanoes
Mountain,Huaynaputina,,-16.614,-70.854,13892.790670742188,,,,,,,Volcanoes
Mountain,Lopevi,,-16.507,168.346,3881.0334734179687,,,,,,,Volcanoes
Mountain,Ubinas,,-16.345,-70.897,17286.926982910158,,,,,,,Volcanoes
Mountain,Ambrym,,-16.25,168.12,3784.4301168212874,,,,,,,Volcanoes
Mountain,Tafahi,,-15.85,-173.72,0,,,,,,,Volcanoes
Mountain,Sabancaya,,-15.787,-71.857,19465.712321660158,,,,,,,Volcanoes
Mountain,Huambo,,-15.78,-72.08,13014.429864306641,,,,,,,Volcanoes
Mountain,Curacoa,,-15.62,-173.67,-1358.685675,,,,,,,Volcanoes
Mountain,Niuafo'ou,,-15.6,-175.63,26.24672,,,,,,,Volcanoes
Mountain,Coropuna,,-15.52,-72.65,20376.714121953126,,,,,,,Volcanoes
Mountain,Dugong,,-15.431,-175.725,-3288.29538,,,,,,,Volcanoes
Mountain,Andahua-Orcopampa,,-15.42,-72.33,12996.217037177734,,,,,,,Volcanoes
Mountain,Ambae,,-15.389,167.835,4389.76392,,,,,,,Volcanoes
Mountain,Niuatahi,,-15.379,-174.003,-4798.311402,,,,,,,Volcanoes
Mountain,Tafu-Maka,,-15.37,-174.23,-5882.910168,,,,,,,Volcanoes
Mountain,Lobster,,-15.333,-176.283,-4930.097683,,,,,,,Volcanoes
Mountain,Sara Sara,,-15.33,-73.45,17125.316777402342,,,,,,,Volcanoes
Mountain,West Mata,,-15.1,-173.75,-5095.074834,,,,,,,Volcanoes
Mountain,Malumalu,,-14.601,-169.787,-578.0005953,,,,,,,Volcanoes
Mountain,Mere Lava,,-14.45,168.05,1558.3114922436525,,,,,,,Volcanoes
Mountain,Ankaizina Field,,-14.3,48.67,5500.472437539062,,,,,,,Volcanoes
Mountain,Tutuila,,-14.29,-170.702,806.0320914373779,,,,,,,Volcanoes
Mountain,Gaua,,-14.281,167.514,2358.7723733374023,,,,,,,Volcanoes
Mountain,Ta'u,,-14.23,-169.454,3030.582034353027,,,,,,,Volcanoes
Mountain,Vailulu'u,,-14.215,-169.058,-2682.014811,,,,,,,Volcanoes
Mountain,Ofu-Olosega,,-14.175,-169.618,1333.244846986084,,,,,,,Volcanoes
Mountain,Kimsachata-Oroscocha,,-14.131,-71.363,12149.31336680664,,,,,,,Volcanoes
Mountain,Upolu,,-13.935,-171.72,3451.000734560547,,,,,,,Volcanoes
Mountain,Suretamatai,,-13.8,167.47,2502.6110951831056,,,,,,,Volcanoes
Mountain,Motlav,,-13.67,167.67,1079.818579918213,,,,,,,Volcanoes
Mountain,Savaii,,-13.612,-172.525,5173.146170605469,,,,,,,Volcanoes
Mountain,Nosy-Be,,-13.32,48.48,157.98656839019776,,,,,,,Volcanoes
Mountain,Wallis Islands,,-13.3,-176.17,-3.699715175,,,,,,,Volcanoes
Mountain,Mayotte,,-12.83,45.17,363.04124607177755,,,,,,,Volcanoes
Mountain,Ambre-Bobaomby,,-12.6,49.15,4337.856801992188,,,,,,,Volcanoes
Mountain,Karthala,,-11.75,43.38,6828.317134824219,,,,,,,Volcanoes
Mountain,Tinakula,,-10.386,165.804,2590.7966862109374,,,,,,,Volcanoes
Mountain,Dawson Strait Group,,-9.62,150.88,922.8697143469238,,,,,,,Volcanoes
Mountain,Sessagara Hills,,-9.554,149.128,924.2033566,,,,,,,Volcanoes
Mountain,Sessagara,,-9.549,149.151,784.5248576025391,,,,,,,Volcanoes
Mountain,Iamalele,,-9.506,150.524,62.72657224678039,,,,,,,Volcanoes
Mountain,Goodenough,,-9.358,150.246,5554.867018588869,,,,,,,Volcanoes
Mountain,Gallego,,-9.35,159.73,2398.006485908203,,,,,,,Volcanoes
Mountain,Musa River,,-9.308,148.13,5226.095772319338,,,,,,,Volcanoes
Mountain,Kyejo,,-9.229,33.792,2176,,,,,,,Volcanoes
Mountain,Madilogo,,-9.2,147.57,2447.1770341259767,,,,,,,Volcanoes
Mountain,Victory,,-9.2,149.072,5989.652810317381,,,,,,,Volcanoes
Mountain,Rungwe,,-9.135,33.668,2953,,,,,,,Volcanoes
Mountain,Savo,,-9.13,159.82,826.0746216479494,,,,,,,Volcanoes
Mountain,Managlase Plateau,,-9.08,148.33,2464.581666049805,,,,,,,Volcanoes
Mountain,Ngozi,,-9.004,33.552,2614,,,,,,,Volcanoes
Mountain,Hydrographers Range,,-9,148.37,4936.868019589844,,,,,,,Volcanoes
Mountain,Kavachi,,-8.991,157.979,0,,,,,,,Volcanoes
Mountain,Lamington,,-8.95,148.15,3496.9965734667967,,,,,,,Volcanoes
Mountain,Izumbwe-Mpoli,,-8.93,33.4,1568,,,,,,,Volcanoes
Mountain,Unnamed,,-8.92,158.03,-2805.794232,,,,,,,Volcanoes
Mountain,Iya,,-8.891,121.641,2084.9133455322267,,,,,,,Volcanoes
Mountain,Inierie,,-8.875,120.95,5941.777857,,,,,,,Volcanoes
Mountain,Coleman Seamount,,-8.841,157.16,-2376.371645,,,,,,,Volcanoes
Mountain,Ebulobo,,-8.817,121.191,6892.293514824219,,,,,,,Volcanoes
Mountain,Sukaria Caldera,,-8.792,121.77,3241.7855086132813,,,,,,,Volcanoes
Mountain,Kelimutu,,-8.77,121.82,5144.725173217775,,,,,,,Volcanoes
Mountain,SW Usangu Basin,,-8.75,33.8,2179,,,,,,,Volcanoes
Mountain,Kana Keoki,,-8.75,157.03,-2801.383801,,,,,,,Volcanoes
Mountain,Inielika,,-8.73,120.98,4977.242936938475,,,,,,,Volcanoes
Mountain,Ndete Napu,,-8.72,121.78,3614.3498813867186,,,,,,,Volcanoes
Mountain,Poco Leok,,-8.68,120.48,4902.693136914062,,,,,,,Volcanoes
Mountain,Egon,,-8.676,122.455,5369.627716401369,,,,,,,Volcanoes
Mountain,Ranakah,,-8.637,120.53,7487.967823378906,,,,,,,Volcanoes
Mountain,Unnamed,,-8.63,33.57,0,,,,,,,Volcanoes
Mountain,Lewotobi Perempuan,,-8.575,122.78,2806.4991004296876,,,,,,,Volcanoes
Mountain,Ililabalekan,,-8.55,123.38,4471.751679067382,,,,,,,Volcanoes
Mountain,Lewotobi,,-8.542,122.775,3871.337133,,,,,,,Volcanoes
Mountain,Iliwerung,,-8.532,123.573,1406.5015547070313,,,,,,,Volcanoes
Mountain,Sirung,,-8.497,124.131,1391.07616,,,,,,,Volcanoes
Mountain,Ilimuda,,-8.479,122.761,2871.120475,,,,,,,Volcanoes
Mountain,Rinjani,,-8.42,116.47,9575.936531259766,,,,,,,Volcanoes
Mountain,Leroboleng,,-8.365,122.833,3631.7905576953126,,,,,,,Volcanoes
Mountain,Agung,,-8.343,115.508,8385.158216416015,,,,,,,Volcanoes
Mountain,Iliboleng,,-8.342,123.258,4680.082616,,,,,,,Volcanoes
Mountain,Paluweh,,-8.32,121.708,1810.1568125463866,,,,,,,Volcanoes
Mountain,Simbo,,-8.292,156.52,96.25946438056945,,,,,,,Volcanoes
Mountain,Buyan-Bratan,,-8.283,115.133,5565.838929311525,,,,,,,Volcanoes
Mountain,Lewotolok,,-8.274,123.508,4724.673524995119,,,,,,,Volcanoes
Mountain,Southern EPR at 8??S,,-8.27,-107.95,-9389.27708,,,,,,,Volcanoes
Mountain,Tambora,,-8.25,118,4395.505790493163,,,,,,,Volcanoes
Mountain,Batur,,-8.24,115.378,4968.388033081056,,,,,,,Volcanoes
Mountain,Sangeang Api,,-8.2,119.07,5655.033562866212,,,,,,,Volcanoes
Mountain,Raung,,-8.119,114.056,9562.609720732422,,,,,,,Volcanoes
Mountain,Semeru,,-8.108,112.922,12015.210633779297,,,,,,,Volcanoes
Mountain,Ijen,,-8.058,114.242,7038.30291,,,,,,,Volcanoes
Mountain,Malang Plain,,-8.02,112.68,2069.8029386987305,,,,,,,Volcanoes
Mountain,Lamongan,,-7.981,113.341,4783.3141345703125,,,,,,,Volcanoes
Mountain,Iyang-Argapura,,-7.97,113.57,9666.693889140624,,,,,,,Volcanoes
Mountain,Ascension,,-7.95,-14.37,713.9035450860597,,,,,,,Volcanoes
Mountain,Tengger Caldera,,-7.942,112.95,7557.856283466796,,,,,,,Volcanoes
Mountain,Kelud,,-7.935,112.314,5610.676141,,,,,,,Volcanoes
Mountain,Kawi-Butak,,-7.92,112.45,8010.238142851563,,,,,,,Volcanoes
Mountain,Baluran,,-7.85,114.37,3452.7336684814436,,,,,,,Volcanoes
Mountain,Wilis,,-7.808,111.758,7955.710197578125,,,,,,,Volcanoes
Mountain,Arjuno-Welirang,,-7.733,112.575,10088.682322304687,,,,,,,Volcanoes
Mountain,Lurus,,-7.7,113.58,-10.28076121,,,,,,,Volcanoes
Mountain,Lawu,,-7.625,111.192,10200.68744451172,,,,,,,Volcanoes
Mountain,Penanggungan,,-7.616,112.62,5362.427249804688,,,,,,,Volcanoes
Mountain,Merapi,,-7.54,110.446,9147.202992226563,,,,,,,Volcanoes
Mountain,Yersey,,-7.53,123.95,-12750.38552,,,,,,,Volcanoes
Mountain,Merbabu,,-7.454,110.44,10272.494266855469,,,,,,,Volcanoes
Mountain,Sumbing,,-7.384,110.07,10722.155976669921,,,,,,,Volcanoes
Mountain,Telomoyo,,-7.362,110.4,6130.726126865235,,,,,,,Volcanoes
Mountain,Koranga,,-7.33,146.708,3897.487735063475,,,,,,,Volcanoes
Mountain,Papandayan,,-7.32,107.73,7463.6562863476565,,,,,,,Volcanoes
Mountain,Sundoro,,-7.302,109.996,10290.437962578126,,,,,,,Volcanoes
Mountain,Galunggung,,-7.25,108.058,6861.819989970703,,,,,,,Volcanoes
Mountain,Kendang,,-7.245,107.709,8517.987381181641,,,,,,,Volcanoes
Mountain,Slamet,,-7.242,109.208,9965.998450371093,,,,,,,Volcanoes
Mountain,Talagabodas,,-7.208,108.07,5618.596294306641,,,,,,,Volcanoes
Mountain,Wayang-Windu,,-7.208,107.63,5913.261542724609,,,,,,,Volcanoes
Mountain,Dieng Volcanic Complex,,-7.2,109.879,6176.228558193359,,,,,,,Volcanoes
Mountain,Ungaran,,-7.188,110.346,6660.281817,,,,,,,Volcanoes
Mountain,Patuha,,-7.162,107.4,7677.0230244335935,,,,,,,Volcanoes
Mountain,Guntur,,-7.143,107.841,7346.578517724609,,,,,,,Volcanoes
Mountain,Malabar,,-7.13,107.65,6047.324626928712,,,,,,,Volcanoes
Mountain,Wurlali,,-7.125,128.675,2009.7123436230468,,,,,,,Volcanoes
Mountain,Yelia,,-7.05,145.858,10106.073337460937,,,,,,,Volcanoes
Mountain,Teon,,-6.976,129.144,2375.8443956884767,,,,,,,Volcanoes
Mountain,Ciremai,,-6.895,108.408,9336.027509,,,,,,,Volcanoes
Mountain,Gede-Pangrango,,-6.786,106.983,9074.233938720703,,,,,,,Volcanoes
Mountain,Tangkuban Parahu,,-6.77,107.6,5936.3647918798815,,,,,,,Volcanoes
Mountain,Tampomas,,-6.764,107.961,5525.319834423828,,,,,,,Volcanoes
Mountain,Perbakti-Gagak,,-6.75,106.675,4027.080114,,,,,,,Volcanoes
Mountain,Nila,,-6.73,129.5,708.6403640472412,,,,,,,Volcanoes
Mountain,Kiaraberes-Gagak,,-6.73,106.65,4972.230764990234,,,,,,,Volcanoes
Mountain,Salak,,-6.716,106.733,7201.503874,,,,,,,Volcanoes
Mountain,Wetar,,-6.642,126.65,-4.771637475,,,,,,,Volcanoes
Mountain,Emperor of China,,-6.62,124.22,-11869.42632,,,,,,,Volcanoes
Mountain,Muria,,-6.62,110.88,4052.9619848046873,,,,,,,Volcanoes
Mountain,Nieuwerkerk,,-6.6,124.675,-12776.48646,,,,,,,Volcanoes
Mountain,Crater Mountain,,-6.58,145.08,7139.614864345703,,,,,,,Volcanoes
Mountain,Loloru,,-6.52,155.62,5242.226835981443,,,,,,,Volcanoes
Mountain,Takuan Group,,-6.442,155.608,7034.173024111328,,,,,,,Volcanoes
Mountain,Pulosari,,-6.343,105.978,4242.3640129394535,,,,,,,Volcanoes
Mountain,Serua,,-6.312,130.017,1969.580125131836,,,,,,,Volcanoes
Mountain,Karang,,-6.268,106.05,5750.8251198193375,,,,,,,Volcanoes
Mountain,Bagana,,-6.137,155.196,6076.505359848631,,,,,,,Volcanoes
Mountain,Krakatau,,-6.101,105.423,877.4952405847168,,,,,,,Volcanoes
Mountain,Billy Mitchell,,-6.09,155.225,3363.6752026025374,,,,,,,Volcanoes
Mountain,Balbi,,-5.916,155.001,8059.099910839844,,,,,,,Volcanoes
Mountain,Doma Peaks,,-5.9,143.15,10551.43776,,,,,,,Volcanoes
Mountain,Tore,,-5.835,154.935,7095.288280947266,,,,,,,Volcanoes
Mountain,Rajabasa,,-5.78,105.625,3665.8264692431626,,,,,,,Volcanoes
Mountain,Umboi,,-5.592,147.892,2493.8631230004885,,,,,,,Volcanoes
Mountain,Witori,,-5.575,150.516,2320.555313156738,,,,,,,Volcanoes
Mountain,Manuk,,-5.543,130.303,773.6953722613525,,,,,,,Volcanoes
Mountain,Langila,,-5.525,148.42,2836.00223,,,,,,,Volcanoes
Mountain,Ritter Island,,-5.519,148.115,218.78676226013184,,,,,,,Volcanoes
Mountain,Sulu Range,,-5.5,150.942,1563.916494197998,,,,,,,Volcanoes
Mountain,Lolo,,-5.466,150.509,2561.797376694336,,,,,,,Volcanoes
Mountain,Krummel-Garbuna-Welcker,,-5.416,150.027,3457.176739643556,,,,,,,Volcanoes
Mountain,Sakar,,-5.414,148.094,1578.392119366455,,,,,,,Volcanoes
Mountain,Long Island,,-5.358,147.12,643.04464,,,,,,,Volcanoes
Mountain,Hulubelu,,-5.334,104.59,2773.411356447754,,,,,,,Volcanoes
Mountain,Hargy,,-5.33,151.1,2760.3490716552733,,,,,,,Volcanoes
Mountain,Garua Harbour,,-5.3,150.07,445.6156775628662,,,,,,,Volcanoes
Mountain,Suoh,,-5.25,104.27,792.6629788,,,,,,,Volcanoes
Mountain,Bamus,,-5.2,151.23,5418.172293803713,,,,,,,Volcanoes
Mountain,Unnamed,,-5.2,148.57,-2772.909338,,,,,,,Volcanoes
Mountain,Bola,,-5.141,150.038,3566.9939676953127,,,,,,,Volcanoes
Mountain,Sekincau Belirang,,-5.107,104.317,5605.074444,,,,,,,Volcanoes
Mountain,Ulawun,,-5.05,151.33,7389.483350390625,,,,,,,Volcanoes
Mountain,Dakataua,,-5.046,150.1,575.4927070928956,,,,,,,Volcanoes
Mountain,Lolobau,,-4.916,151.162,2063.2859136865236,,,,,,,Volcanoes
Mountain,Igwisi Hills,,-4.889,31.933,1146,,,,,,,Volcanoes
Mountain,Hankow Reef,,-4.883,146.717,-69.47040154,,,,,,,Volcanoes
Mountain,Ranau,,-4.871,103.925,1781.49612,,,,,,,Volcanoes
Mountain,Unnamed,,-4.75,150.85,-6825.66587,,,,,,,Volcanoes
Mountain,Garove,,-4.687,149.511,1179.9081293847655,,,,,,,Volcanoes
Mountain,Karkar,,-4.647,145.976,3726.8367968701186,,,,,,,Volcanoes
Mountain,Mundua,,-4.624,149.339,572.2695381085206,,,,,,,Volcanoes
Mountain,Banda Api,,-4.523,129.881,1952.0044826269532,,,,,,,Volcanoes
Mountain,Besar,,-4.43,103.67,5698.905987,,,,,,,Volcanoes
Mountain,Unnamed,,-4.311,146.256,-6236.836791,,,,,,,Volcanoes
Mountain,Patah,,-4.257,103.306,9279.356925517579,,,,,,,Volcanoes
Mountain,Rabaul,,-4.246,152.194,0,,,,,,,Volcanoes
Mountain,Tavui,,-4.109,152.213,-3267.661372,,,,,,,Volcanoes
Mountain,Manam,,-4.08,145.037,5471.991366176756,,,,,,,Volcanoes
Mountain,Ambitle,,-4.08,153.65,245.07568422729491,,,,,,,Volcanoes
Mountain,Dempo,,-4.016,103.121,9304.835499628905,,,,,,,Volcanoes
Mountain,Boisa,,-3.994,144.963,211.6417639666748,,,,,,,Volcanoes
Mountain,Bam,,-3.613,144.818,1950.3488438867187,,,,,,,Volcanoes
Mountain,Kadovar,,-3.608,144.588,-612.2489685,,,,,,,Volcanoes
Mountain,Kaba,,-3.522,102.615,6337.232417050781,,,,,,,Volcanoes
Mountain,Blup Blup,,-3.507,144.605,1047.9722646215819,,,,,,,Volcanoes
Mountain,Unnamed,,-3.5,-24.5,-17152.96042,,,,,,,Volcanoes
Mountain,Hululais,,-3.247,102.239,6958.515059501953,,,,,,,Volcanoes
Mountain,Meru,,-3.244,36.75,4550,,,,,,,Volcanoes
Mountain,Lihir,,-3.125,152.642,66.26901563308716,,,,,,,Volcanoes
Mountain,Kilimanjaro,,-3.07,37.35,5895,,,,,,,Volcanoes
Mountain,Central Bismarck Sea,,-3.03,147.78,-1300,,,,,,,Volcanoes
Mountain,Pendan,,-2.82,102.02,3532.5103047900375,,,,,,,Volcanoes
Mountain,Chyulu Hills,,-2.68,37.88,2188,,,,,,,Volcanoes
Mountain,Baluan,,-2.57,147.28,254,,,,,,,Volcanoes
Mountain,Sumbing,,-2.414,101.728,7980.234796972656,,,,,,,Volcanoes
Mountain,St. Andrew Strait,,-2.38,147.35,270,,,,,,,Volcanoes
Mountain,Hutapanjang,,-2.333,101.6,6607.296171386719,,,,,,,Volcanoes
Mountain,Hutapanjang,,-2.33,101.6,6447.360027304688,,,,,,,Volcanoes
Mountain,Tshibinda,,-2.32,28.75,1460,,,,,,,Volcanoes
Mountain,Sangay,,-2.005,-78.341,17319.240373359375,,,,,,,Volcanoes
Mountain,Licto,,-1.786,-78.614,10738.957465888672,,,,,,,Volcanoes
Mountain,Kerinci,,-1.697,101.264,12383.669951621094,,,,,,,Volcanoes
Mountain,Nyiragongo,,-1.52,29.25,3470,,,,,,,Volcanoes
Mountain,Karisimbi,,-1.506,29.45,4490,,,,,,,Volcanoes
Mountain,Chimborazo,,-1.469,-78.817,20517.162268671877,,,,,,,Volcanoes
Mountain,Tungurahua,,-1.467,-78.442,15407.652859863281,,,,,,,Volcanoes
Mountain,Visoke,,-1.458,29.485,3696,,,,,,,Volcanoes
Mountain,Nyamulagira,,-1.408,29.2,3058,,,,,,,Volcanoes
Mountain,Muhavura,,-1.383,29.678,4103,,,,,,,Volcanoes
Mountain,Bufumbira,,-1.304,29.683,2100,,,,,,,Volcanoes
Mountain,Suswa,,-1.151,36.357,2356,,,,,,,Volcanoes
Mountain,Talang,,-0.979,100.681,8357.271877402343,,,,,,,Volcanoes
Mountain,May-ya-moto,,-0.93,29.33,950,,,,,,,Volcanoes
Mountain,Longonot,,-0.914,36.446,2776,,,,,,,Volcanoes
Mountain,Olkaria,,-0.904,36.292,2434,,,,,,,Volcanoes
Mountain,San Cristobal,,-0.88,-89.5,1718.839765,,,,,,,Volcanoes
Mountain,Quilotoa,,-0.859,-78.904,11499.3442,,,,,,,Volcanoes
Mountain,Bibinoi,,-0.761,127.725,3049.6869600048826,,,,,,,Volcanoes
Mountain,Cotopaxi,,-0.677,-78.436,18124.130708847657,,,,,,,Volcanoes
Mountain,Iliniza,,-0.662,-78.716,16905.457244140624,,,,,,,Volcanoes
Mountain,Santa Cruz,,-0.62,-90.33,1740.6620372387695,,,,,,,Volcanoes
Mountain,Elmenteita Badlands,,-0.546,36.249,2126,,,,,,,Volcanoes
Mountain,Sumaco,,-0.538,-77.626,12008.537616679687,,,,,,,Volcanoes
Mountain,Aliso,,-0.53,-78,12222.656480927735,,,,,,,Volcanoes
Mountain,Amasing,,-0.525,127.496,3274.0169982104494,,,,,,,Volcanoes
Mountain,Antisana,,-0.481,-78.141,18074.45514,,,,,,,Volcanoes
Mountain,Katunga,,-0.471,30.191,1707,,,,,,,Volcanoes
Mountain,Romanche Fracture Zone,,-0.433,-19.596,-15037.73975,,,,,,,Volcanoes
Mountain,Alcedo,,-0.43,-91.12,2635.6665385864258,,,,,,,Volcanoes
Mountain,Tandikat-Singgalang,,-0.39,100.331,9427.451287724609,,,,,,,Volcanoes
Mountain,Homa Mountain,,-0.38,34.5,1751,,,,,,,Volcanoes
Mountain,Marapi,,-0.38,100.474,9456.225920576171,,,,,,,Volcanoes
Mountain,Chacana,,-0.375,-78.25,13605.818095019531,,,,,,,Volcanoes
Mountain,Fernandina,,-0.37,-91.55,1895.6607013476562,,,,,,,Volcanoes
Mountain,Atacazo,,-0.353,-78.617,13780.913706347656,,,,,,,Volcanoes
Mountain,Santiago,,-0.22,-90.77,2537.921977,,,,,,,Volcanoes
Mountain,Bunyaruguru,,-0.2,30.08,1554,,,,,,,Volcanoes
Mountain,Menengai,,-0.2,36.07,2278,,,,,,,Volcanoes
Mountain,Darwin,,-0.18,-91.28,3652.230927802734,,,,,,,Volcanoes
Mountain,Guagua Pichincha,,-0.171,-78.598,14910.155445546874,,,,,,,Volcanoes
Mountain,Colo,,-0.162,121.601,1323.7682776147462,,,,,,,Volcanoes
Mountain,Katwe-Kikorongo,,-0.08,29.92,1067,,,,,,,Volcanoes
Mountain,Reventador,,-0.077,-77.656,10704.289175634765,,,,,,,Volcanoes
Mountain,Ecuador,,-0.02,-91.546,2731.4244541137696,,,,,,,Volcanoes
Mountain,Wolf,,0.02,-91.35,3307.3158020898436,,,,,,,Volcanoes
Mountain,Cayambe,,0.029,-77.986,17977.726427792968,,,,,,,Volcanoes
Mountain,Pululahua,,0.046,-78.49,9008.787748808594,,,,,,,Volcanoes
Mountain,Tigalalu,,0.07,127.42,691.7581253942872,,,,,,,Volcanoes
Mountain,Sarik-Gajah,,0.074,100.189,2428.1331836816407,,,,,,,Volcanoes
Mountain,Talakmau,,0.079,99.98,8958.754938808594,,,,,,,Volcanoes
Mountain,Mojanda,,0.13,-78.27,12217.69437,,,,,,,Volcanoes
Mountain,Nyambeni Hills,,0.23,37.87,750,,,,,,,Volcanoes
Mountain,Imbabura,,0.258,-78.183,14196.36929501953,,,,,,,Volcanoes
Mountain,Cuicocha,,0.308,-78.364,10036.08956,,,,,,,Volcanoes
Mountain,Sao Tome,,0.32,6.72,192.53732641586305,,,,,,,Volcanoes
Mountain,Genovesa,,0.32,-89.958,120.71408385238648,,,,,,,Volcanoes
Mountain,Kie Besi,,0.32,127.4,3530.010826953125,,,,,,,Volcanoes
Mountain,Marchena,,0.33,-90.47,676.3770352435303,,,,,,,Volcanoes
Mountain,Kyatwa,,0.45,30.25,1430,,,,,,,Volcanoes
Mountain,Moti,,0.454,127.411,3015.507071164551,,,,,,,Volcanoes
Mountain,Chachimbiro,,0.468,-78.287,12850.788357470703,,,,,,,Volcanoes
Mountain,Malintang,,0.47,99.67,5351.653583198244,,,,,,,Volcanoes
Mountain,Soche,,0.552,-77.58,12421.351552441407,,,,,,,Volcanoes
Mountain,Mare,,0.57,127.4,140.60830643814086,,,,,,,Volcanoes
Mountain,Pinta,,0.58,-90.75,1537.4460987658692,,,,,,,Volcanoes
Mountain,Ol Kokwe,,0.62,36.075,1130,,,,,,,Volcanoes
Mountain,Kie Matubu,,0.662,127.403,5614.244535585937,,,,,,,Volcanoes
Mountain,Sorikmarapi,,0.686,99.539,7020.078869,,,,,,,Volcanoes
Mountain,Fort Portal,,0.7,30.25,1615,,,,,,,Volcanoes
Mountain,Ambang,,0.75,124.42,4518.546501835937,,,,,,,Volcanoes
Mountain,Korosi,,0.77,36.12,1446,,,,,,,Volcanoes
Mountain,Galapagos Rift,,0.792,-86.15,-8244.512226,,,,,,,Volcanoes
Mountain,Galapagos Rift,,0.792,-86.15,-8244.512226,,,,,,,Volcanoes
Mountain,Gamalama,,0.81,127.332,5404.2467459960935,,,,,,,Volcanoes
Mountain,Chiles-Cerro Negro,,0.817,-77.938,15362.824859023438,,,,,,,Volcanoes
Mountain,Hiri,,0.9,127.32,1142.8057418029784,,,,,,,Volcanoes
Mountain,Paka,,0.92,36.18,1697,,,,,,,Volcanoes
Mountain,Cumbal,,0.95,-77.87,12845.675661738282,,,,,,,Volcanoes
Mountain,Azufral,,1.08,-77.68,11327.092891123048,,,,,,,Volcanoes
Mountain,Jailolo,,1.08,127.439,3315.144842707519,,,,,,,Volcanoes
Mountain,Soputan,,1.112,124.737,5917.427472617187,,,,,,,Volcanoes
Mountain,Riendengan-Sempu,,1.13,124.758,4733.077874042969,,,,,,,Volcanoes
Mountain,Silali,,1.15,36.23,1528,,,,,,,Volcanoes
Mountain,Galeras,,1.22,-77.37,11673.26316241211,,,,,,,Volcanoes
Mountain,Tondano Caldera,,1.23,124.83,2858.315907229004,,,,,,,Volcanoes
Mountain,Todoko-Ranu,,1.239,127.456,2530.764763383789,,,,,,,Volcanoes
Mountain,Mahawu,,1.352,124.865,4312.928505488281,,,,,,,Volcanoes
Mountain,Lokon-Empung,,1.358,124.792,4638.747316152344,,,,,,,Volcanoes
Mountain,Gamkonora,,1.38,127.53,4426.252451684569,,,,,,,Volcanoes
Mountain,Klabat,,1.454,125.031,6508.061575,,,,,,,Volcanoes
Mountain,Lubukraya,,1.478,99.209,6187.382293,,,,,,,Volcanoes
Mountain,Ibu,,1.488,127.63,3907.413558,,,,,,,Volcanoes
Mountain,Emuruangogolak,,1.5,36.33,1285,,,,,,,Volcanoes
Mountain,Dona Juana,,1.5,-76.936,13586.720978984375,,,,,,,Volcanoes
Mountain,Tangkoko-Duasudara,,1.518,125.185,3684.402543671875,,,,,,,Volcanoes
Mountain,Sibualbuali,,1.556,99.255,5930.109489150391,,,,,,,Volcanoes
Mountain,Segererua Plateau,,1.57,37.9,699,,,,,,,Volcanoes
Mountain,Petacas,,1.57,-76.78,9733.581854443359,,,,,,,Volcanoes
Mountain,Tobaru,,1.63,127.67,3230.2779382836916,,,,,,,Volcanoes
Mountain,Dukono,,1.699,127.878,3320.4289495141593,,,,,,,Volcanoes
Mountain,Tarakan,,1.832,127.825,1003.6000250024412,,,,,,,Volcanoes
Mountain,Namarunu,,1.98,36.43,817,,,,,,,Volcanoes
Mountain,Sotara,,2.108,-76.592,14325.363337246094,,,,,,,Volcanoes
Mountain,Imun,,2.15,98.93,4289.729938959962,,,,,,,Volcanoes
Mountain,Ruang,,2.3,125.37,1599.2782383654785,,,,,,,Volcanoes
Mountain,Barrier, The,2.32,36.57,1032,,,,,,,Volcanoes
Mountain,Marsabit,,2.32,37.97,1707,,,,,,,Volcanoes
Mountain,Purace,,2.32,-76.4,13972.954984433594,,,,,,,Volcanoes
Mountain,Toba,,2.608,98.842,5280.885239628906,,,,,,,Volcanoes
Mountain,Lake Turkana South Island,,2.636,36.596,800,,,,,,,Volcanoes
Mountain,Karangetang,,2.781,125.407,5884.4785,,,,,,,Volcanoes
Mountain,Banua Wuhu,,3.138,125.491,-212.0564246,,,,,,,Volcanoes
Mountain,Sinabung,,3.17,98.392,7865.200344472656,,,,,,,Volcanoes
Mountain,Singkut,,3.238,98.513,5674.248824384766,,,,,,,Volcanoes
Mountain,San Carlos,,3.35,8.52,3530.1057438330063,,,,,,,Volcanoes
Mountain,San Joaquin,,3.35,8.63,6251.916559790037,,,,,,,Volcanoes
Mountain,Lake Turkana Central Island,,3.496,36.04,518,,,,,,,Volcanoes
Mountain,Santa Isabel,,3.588,8.762,9802.042155908202,,,,,,,Volcanoes
Mountain,Awu,,3.689,125.447,4304.430841533203,,,,,,,Volcanoes
Mountain,Unnamed,,3.97,124.17,-16227.99582,,,,,,,Volcanoes
Mountain,Mega Volcanic Field,,3.971,38.213,1500,,,,,,,Volcanoes
Mountain,Lake Turkana North Island,,4.063,36.046,490,,,,,,,Volcanoes
Mountain,Unnamed,,4.2,-21.45,-11896.67587,,,,,,,Volcanoes
Mountain,Cameroon,,4.203,9.17,11684.372041796874,,,,,,,Volcanoes
Mountain,Bombalai,,4.4,117.88,1086.6324704882813,,,,,,,Volcanoes
Mountain,Machin,,4.487,-75.389,8992.281823544921,,,,,,,Volcanoes
Mountain,Tombel Graben,,4.758,9.717,1562.2031844421388,,,,,,,Volcanoes
Mountain,Santa Isabel,,4.818,-75.365,16198.38656298828,,,,,,,Volcanoes
Mountain,Peuet Sague,,4.903,96.289,7772.074470019531,,,,,,,Volcanoes
Mountain,Manengouba,,5.03,9.83,6478.875234877931,,,,,,,Volcanoes
Mountain,Korath Range,,5.117,35.892,2142.4622107421874,,,,,,,Volcanoes
Mountain,Romeral,,5.203,-75.363,12345.629508925782,,,,,,,Volcanoes
Mountain,Balut,,5.398,125.376,2750.6138838232423,,,,,,,Volcanoes
Mountain,Seulawah Agam,,5.448,95.658,5701.495575815431,,,,,,,Volcanoes
Mountain,East Chamo Basin,,5.708,37.713,3758.475756831056,,,,,,,Volcanoes
Mountain,Tosa Sucha,,5.92,37.57,3638.45156,,,,,,,Volcanoes
Mountain,Bud Dajo,,5.95,121.07,748.0412820208741,,,,,,,Volcanoes
Mountain,Melebingoy,,6.113,124.892,5258.534917622069,,,,,,,Volcanoes
Mountain,Oku Volcanic Field,,6.25,10.5,6256.950758862306,,,,,,,Volcanoes
Mountain,Matutum,,6.36,125.077,7373.023081347656,,,,,,,Volcanoes
Mountain,Chiracha,,6.65,38.12,4437.366537480469,,,,,,,Volcanoes
Mountain,Northern Lake Abaya Volcanic Field,,6.76,37.97,4795.648923530275,,,,,,,Volcanoes
Mountain,Hobicha Caldera,,6.78,37.83,6172.695408,,,,,,,Volcanoes
Mountain,Apo,,6.989,125.269,9318.806303164063,,,,,,,Volcanoes
Mountain,Unnamed,,7,-21.83,-10407.11684,,,,,,,Volcanoes
Mountain,Bilate River Field,,7.07,38.1,5299.0375922900375,,,,,,,Volcanoes
Mountain,Corbetti,,7.193,38.39,6689.293141796875,,,,,,,Volcanoes
Mountain,Ngaoundere Plateau,,7.25,13.67,3471.12872,,,,,,,Volcanoes
Mountain,Leonard Range,,7.382,126.047,2213.6342514208986,,,,,,,Volcanoes
Mountain,Tepi,,7.42,35.43,8617.483499902344,,,,,,,Volcanoes
Mountain,Shala,,7.457,38.557,5108.26788,,,,,,,Volcanoes
Mountain,Makaturing,,7.644,124.317,5938.865871689453,,,,,,,Volcanoes
Mountain,Latukan,,7.65,124.47,6235.791103032225,,,,,,,Volcanoes
Mountain,Ragang,,7.691,124.507,9119.835692353516,,,,,,,Volcanoes
Mountain,Aluto,,7.77,38.78,7471.725422617187,,,,,,,Volcanoes
Mountain,East Ziway,,7.874,38.902,6475.038510366212,,,,,,,Volcanoes
Mountain,Musuan,,7.877,125.07,1944.2088831884766,,,,,,,Volcanoes
Mountain,Kalatungan,,7.95,124.8,8948.654501210938,,,,,,,Volcanoes
Mountain,Unnamed,,8.013,39.062,6158.6581220996095,,,,,,,Volcanoes
Mountain,Butajiri-Silti Field,,8.05,38.35,7109.223040097656,,,,,,,Volcanoes
Mountain,Bora-Bericha-Tullu Moye,,8.211,39.081,6159.022570878907,,,,,,,Volcanoes
Mountain,Malindang,,8.22,123.63,7035.739753369141,,,,,,,Volcanoes
Mountain,Bora-Bericcio,,8.221,39.05,5623.312101313475,,,,,,,Volcanoes
Mountain,Gedemsa,,8.363,39.172,5625.963766552734,,,,,,,Volcanoes
Mountain,Melkassa,,8.43,39.35,5452.387226,,,,,,,Volcanoes
Mountain,Boset,,8.558,39.475,7707.815341845703,,,,,,,Volcanoes
Mountain,Unnamed,,8.62,38.95,5802.394622089843,,,,,,,Volcanoes
Mountain,Unnamed,,8.7,39.63,4364.5749024462875,,,,,,,Volcanoes
Mountain,Bishoftu Volcanic Field,,8.78,38.98,6203.24823,,,,,,,Volcanoes
Mountain,Balatocan,,8.8,124.92,2643.2604897167967,,,,,,,Volcanoes
Mountain,Baru,,8.808,-82.543,11115.996949277343,,,,,,,Volcanoes
Mountain,Kone,,8.811,39.695,4503.802746494141,,,,,,,Volcanoes
Mountain,Beru,,8.95,39.75,3836.4045176806626,,,,,,,Volcanoes
Mountain,Fentale,,8.985,39.906,4842.366051,,,,,,,Volcanoes
Mountain,Camiguin,,9.203,124.673,3843.984651796875,,,,,,,Volcanoes
Mountain,Cuernos de Negros,,9.25,123.17,5531.553510522463,,,,,,,Volcanoes
Mountain,Dofan,,9.35,40.13,3290.5369407348626,,,,,,,Volcanoes
Mountain,Liado Hayk,,9.57,40.28,2399.465482504883,,,,,,,Volcanoes
Mountain,Paco,,9.593,125.52,1637.242086743164,,,,,,,Volcanoes
Mountain,Hertali,,9.78,40.33,2518.5769554150393,,,,,,,Volcanoes
Mountain,Unnamed,,9.82,-104.3,-8383.87824,,,,,,,Volcanoes
Mountain,Northern EPR at 9.8??N,,9.83,-104.3,-8336.206738,,,,,,,Volcanoes
Mountain,Veteran,,9.83,109.05,-167.3636653,,,,,,,Volcanoes
Mountain,Irazu,,9.979,-83.852,10801.864529140625,,,,,,,Volcanoes
Mountain,Piparo,,10,-61,-138.9618039,,,,,,,Volcanoes
Mountain,Turrialba,,10.025,-83.767,10387.812268515625,,,,,,,Volcanoes
Mountain,Adwa,,10.063,40.831,3565.391595,,,,,,,Volcanoes
Mountain,Ayelu,,10.082,40.702,6757.134280830078,,,,,,,Volcanoes
Mountain,Barva,,10.135,-84.1,9315.088925615235,,,,,,,Volcanoes
Mountain,Poas,,10.2,-84.233,7885.010338339844,,,,,,,Volcanoes
Mountain,Cabalian,,10.285,125.218,2975.1856196533204,,,,,,,Volcanoes
Mountain,Platanar,,10.3,-84.366,6622.747198,,,,,,,Volcanoes
Mountain,Kanlaon,,10.41,123.13,7906.235675048828,,,,,,,Volcanoes
Mountain,Arenal,,10.463,-84.703,5270.0699217333995,,,,,,,Volcanoes
Mountain,Yangudi,,10.58,41.042,3866.643754033203,,,,,,,Volcanoes
Mountain,Mandalagan,,10.65,123.25,4875.567334418944,,,,,,,Volcanoes
Mountain,Tenorio,,10.673,-85.015,5797.571082421875,,,,,,,Volcanoes
Mountain,Northern EPR at 10.7??N,,10.73,-103.58,-9873.83376,,,,,,,Volcanoes
Mountain,Miravalles,,10.748,-85.153,6237.165195078125,,,,,,,Volcanoes
Mountain,Biu Plateau,,10.75,12,1957.5190732495116,,,,,,,Volcanoes
Mountain,Silay,,10.77,123.23,4115.182602773438,,,,,,,Volcanoes
Mountain,Bas Dong Nai,,10.8,107.2,661.7165324182128,,,,,,,Volcanoes
Mountain,Rincon de la Vieja,,10.83,-85.324,5110.936766445312,,,,,,,Volcanoes
Mountain,Mahagnao,,10.882,124.888,2825.4167955273438,,,,,,,Volcanoes
Mountain,Orosi,,10.98,-85.473,4805.2407348095685,,,,,,,Volcanoes
Mountain,Gabillema,,11.08,41.27,3566.2534558349626,,,,,,,Volcanoes
Mountain,Dama Ali,,11.28,41.63,2923.4967704199216,,,,,,,Volcanoes
Mountain,Maderas,,11.446,-85.515,4388.590875522463,,,,,,,Volcanoes
Mountain,Biliran,,11.523,124.535,3426.061224248047,,,,,,,Volcanoes
Mountain,Concepcion,,11.538,-85.622,5189.604036689453,,,,,,,Volcanoes
Mountain,Ardoukoba,,11.58,42.47,130.00471175689697,,,,,,,Volcanoes
Mountain,Haut Dong Nai,,11.6,108.2,2961.965740800781,,,,,,,Volcanoes
Mountain,Borawli Complex,,11.63,41.45,2459.5364534155274,,,,,,,Volcanoes
Mountain,Zapatera,,11.73,-85.82,1426.0516285107421,,,,,,,Volcanoes
Mountain,Manda Gargori,,11.75,41.48,1378.5885828979494,,,,,,,Volcanoes
Mountain,Unnamed,,11.75,80.75,-9421.088252,,,,,,,Volcanoes
Mountain,Groppo,,11.816,40.242,2778.3117908032227,,,,,,,Volcanoes
Mountain,Mombacho,,11.826,-85.968,2553.596277927246,,,,,,,Volcanoes
Mountain,Kurub,,11.88,41.208,1841.4589577563477,,,,,,,Volcanoes
Mountain,Granada,,11.9,-85.979,439.53233658569343,,,,,,,Volcanoes
Mountain,Masaya,,11.984,-86.169,1054.3811564794921,,,,,,,Volcanoes
Mountain,Nejapa-Miraflores,,12.12,-86.32,147.6378,,,,,,,Volcanoes
Mountain,St. Catherine,,12.15,-61.67,1476.3569741088868,,,,,,,Volcanoes
Mountain,Manda Hararo,,12.17,40.82,1989.124592,,,,,,,Volcanoes
Mountain,Apoyeque,,12.242,-86.342,134.51444,,,,,,,Volcanoes
Mountain,Unnamed,,12.25,45,-2775.157907,,,,,,,Volcanoes
Mountain,Barren Island,,12.278,93.858,440.42318356750496,,,,,,,Volcanoes
Mountain,Kick 'em Jenny,,12.3,-61.64,-875.117813,,,,,,,Volcanoes
Mountain,Dabbayra,,12.38,40.07,3977.1858747119127,,,,,,,Volcanoes
Mountain,Manda-Inakir,,12.38,42.2,2199.886722824707,,,,,,,Volcanoes
Mountain,Momotombo,,12.423,-86.539,4091.2871781396498,,,,,,,Volcanoes
Mountain,Mousa Alli,,12.469,42.404,6481.741163959962,,,,,,,Volcanoes
Mountain,Las Pilas-El Hoyo Complex,,12.492,-86.679,2764.2450691552735,,,,,,,Volcanoes
Mountain,Gufa,,12.55,42.53,1999.691003425293,,,,,,,Volcanoes
Mountain,Rota,,12.55,-86.75,2196.0630143408202,,,,,,,Volcanoes
Mountain,Dabbahu,,12.595,40.48,4581.309788041994,,,,,,,Volcanoes
Mountain,Telica,,12.606,-86.84,2871.7612637329103,,,,,,,Volcanoes
Mountain,San Cristobal,,12.702,-87.004,5511.494009414062,,,,,,,Volcanoes
Mountain,Bulusan,,12.769,124.056,5006.363996376953,,,,,,,Volcanoes
Mountain,Alayta,,12.888,40.573,4851.244584,,,,,,,Volcanoes
Mountain,Assab Volcanic Field,,12.95,42.43,1951.5693468041993,,,,,,,Volcanoes
Mountain,Cosiguina,,12.98,-87.57,570.86616,,,,,,,Volcanoes
Mountain,Ma Alalta,,13.013,40.185,5656.716835634766,,,,,,,Volcanoes
Mountain,Pocdol Mountains,,13.05,123.958,3137.284226574707,,,,,,,Volcanoes
Mountain,Afdera,,13.088,40.853,4064.548652534181,,,,,,,Volcanoes
Mountain,Asavyo,,13.098,41.599,4369.913075830078,,,,,,,Volcanoes
Mountain,Mat Ala,,13.106,41.161,1617.0938763989257,,,,,,,Volcanoes
Mountain,Esteli,,13.17,-86.4,2996.9019609814454,,,,,,,Volcanoes
Mountain,Sork Ale,,13.18,41.725,4958.048901557619,,,,,,,Volcanoes
Mountain,Conchaguita,,13.22,-87.765,999.7199471057129,,,,,,,Volcanoes
Mountain,Malindig,,13.24,122.018,3378.6476395410155,,,,,,,Volcanoes
Mountain,Seamount X,,13.25,144.02,-4211.929736,,,,,,,Volcanoes
Mountain,Mayon,,13.257,123.685,7644.2859122167965,,,,,,,Volcanoes
Mountain,Mallahle,,13.27,41.65,4097.693066298828,,,,,,,Volcanoes
Mountain,Conchagua,,13.277,-87.853,2911.3572218774416,,,,,,,Volcanoes
Mountain,Tat Ali,,13.284,41.063,2100.7654657055664,,,,,,,Volcanoes
Mountain,Borawli,,13.304,40.987,2547.9975837402344,,,,,,,Volcanoes
Mountain,Masaraga,,13.31,123.598,4219.666062866212,,,,,,,Volcanoes
Mountain,Soufriere St. Vincent,,13.33,-61.18,2463.045174025879,,,,,,,Volcanoes
Mountain,Nabro,,13.37,41.7,4773.9253733251935,,,,,,,Volcanoes
Mountain,Forecast Seamount,,13.4,143.92,-5553.009131,,,,,,,Volcanoes
Mountain,Usulutan,,13.419,-88.471,4553.953301484375,,,,,,,Volcanoes
Mountain,Malinao,,13.422,123.597,4371.716897041016,,,,,,,Volcanoes
Mountain,Narcondum,,13.43,94.28,36.50298698,,,,,,,Volcanoes
Mountain,San Miguel,,13.434,-88.269,6758.618508496093,,,,,,,Volcanoes
Mountain,Taburete,,13.435,-88.532,3642.062807,,,,,,,Volcanoes
Mountain,Iriga,,13.458,123.451,3701.1075140380876,,,,,,,Volcanoes
Mountain,Chinameca,,13.478,-88.33,4256.793381147462,,,,,,,Volcanoes
Mountain,Tecapa,,13.494,-88.502,5188.225939711912,,,,,,,Volcanoes
Mountain,Hayli Gubbi,,13.51,40.722,1597.3797005212402,,,,,,,Volcanoes
Mountain,Ale Bagu,,13.512,40.631,3224.9515794482422,,,,,,,Volcanoes
Mountain,Dubbi,,13.579,41.809,5308.212890678712,,,,,,,Volcanoes
Mountain,San Vicente,,13.595,-88.837,6786.334237421875,,,,,,,Volcanoes
Mountain,Erta Ale,,13.601,40.666,1789.5500375292968,,,,,,,Volcanoes
Mountain,Isarog,,13.658,123.38,4696.662632607422,,,,,,,Volcanoes
Mountain,Ilopango,,13.672,-89.053,1443.5696,,,,,,,Volcanoes
Mountain,Apastepeque Field,,13.72,-88.77,1881.716531,,,,,,,Volcanoes
Mountain,Hanish,,13.72,42.73,1136.8599201660156,,,,,,,Volcanoes
Mountain,Bora Ale,,13.725,40.6,1839.3385466992188,,,,,,,Volcanoes
Mountain,San Salvador,,13.734,-89.294,6071.812781445313,,,,,,,Volcanoes
Mountain,Dalaffilla,,13.792,40.55,1348.9018268652344,,,,,,,Volcanoes
Mountain,Alu-Dalafilla,,13.793,40.553,1816.8206183032225,,,,,,,Volcanoes
Mountain,Izalco,,13.813,-89.633,6262.775130947266,,,,,,,Volcanoes
Mountain,Qualibou,,13.83,-61.05,1065.8710049865722,,,,,,,Volcanoes
Mountain,San Marcelino,,13.853,-89.63,7279.964489746094,,,,,,,Volcanoes
Mountain,Santa Ana,,13.853,-89.63,7279.964489746094,,,,,,,Volcanoes
Mountain,Coatepeque Caldera,,13.87,-89.55,2431.10244,,,,,,,Volcanoes
Mountain,Apaneca Range,,13.872,-89.742,3745.3824338183595,,,,,,,Volcanoes
Mountain,Guazapa,,13.9,-89.12,4040.1798449804687,,,,,,,Volcanoes
Mountain,Gada Ale,,13.975,40.408,624.6538938,,,,,,,Volcanoes
Mountain,Taal,,14.011,120.998,26.24672,,,,,,,Volcanoes
Mountain,Zukur,,14.02,42.75,1899.914339243164,,,,,,,Volcanoes
Mountain,Moyuta,,14.03,-90.1,4640.4614268945315,,,,,,,Volcanoes
Mountain,Balhaf-Bir Ali Volcanic Field,,14.067,48.3,544.5319322436525,,,,,,,Volcanoes
Mountain,Banahaw,,14.07,121.48,6080.020488349609,,,,,,,Volcanoes
Mountain,Chingo,,14.12,-89.73,5216.415852543943,,,,,,,Volcanoes
Mountain,San Pablo Volcanic Field,,14.12,121.3,274.04135231811523,,,,,,,Volcanoes
Mountain,Tecuamburro,,14.156,-90.407,5811.8186267333995,,,,,,,Volcanoes
Mountain,Dallol,,14.242,40.3,-299.9206949,,,,,,,Volcanoes
Mountain,San Diego,,14.27,-89.48,2248.9869844921873,,,,,,,Volcanoes
Mountain,Flores,,14.308,-89.992,4947.21476,,,,,,,Volcanoes
Mountain,Cuilapa-Barbarena,,14.33,-90.4,3503.0219931201186,,,,,,,Volcanoes
Mountain,Jumaytepeque,,14.34,-90.271,5894.908142495118,,,,,,,Volcanoes
Mountain,Pacaya,,14.382,-90.601,8418.105988037109,,,,,,,Volcanoes
Mountain,Suchitan,,14.4,-89.78,6412.594817705078,,,,,,,Volcanoes
Mountain,Ixtepeque,,14.42,-89.68,3553.7532631982435,,,,,,,Volcanoes
Mountain,Laguna Caldera,,14.42,121.27,6.56168,,,,,,,Volcanoes
Mountain,Tahual,,14.43,-89.9,4811.403523618163,,,,,,,Volcanoes
Mountain,Agua,,14.465,-90.743,12314.655367617188,,,,,,,Volcanoes
Mountain,Fuego,,14.473,-90.88,12114.212543935546,,,,,,,Volcanoes
Mountain,Acatenango,,14.501,-90.876,12955.04553892578,,,,,,,Volcanoes
Mountain,Mariveles,,14.527,120.482,2451.6723696459962,,,,,,,Volcanoes
Mountain,Ipala,,14.55,-89.63,4449.211523300782,,,,,,,Volcanoes
Mountain,Kutum Volcanic Field,,14.57,25.85,3056.0163539697264,,,,,,,Volcanoes
Mountain,Quezaltepeque,,14.57,-89.45,2547.9134801757814,,,,,,,Volcanoes
Mountain,Atitlan,,14.583,-91.186,11485.273273173829,,,,,,,Volcanoes
Mountain,NW Rota-1,,14.601,144.775,-1944.762365,,,,,,,Volcanoes
Mountain,Toliman,,14.612,-91.189,10239.560912988281,,,,,,,Volcanoes
Mountain,Natib,,14.72,120.4,2994.1800091918944,,,,,,,Volcanoes
Mountain,Santa Maria,,14.757,-91.552,12245.916322910156,,,,,,,Volcanoes
Mountain,Almolonga,,14.797,-91.519,10345.790923769531,,,,,,,Volcanoes
Mountain,Pelee,,14.809,-61.166,4480.665455419922,,,,,,,Volcanoes
Mountain,Chiquimula Volcanic Field,,14.83,-89.55,1641.4865132958985,,,,,,,Volcanoes
Mountain,Brava,,14.851,-24.704,3097.4473717919923,,,,,,,Volcanoes
Mountain,Alid,,14.88,39.92,2065.2989925756838,,,,,,,Volcanoes
Mountain,Toroeng Prong,,14.93,108,3427.6579904931627,,,,,,,Volcanoes
Mountain,Fogo,,14.95,-24.35,7438.238587197266,,,,,,,Volcanoes
Mountain,Esmeralda Bank,,14.958,145.249,-1064.256917,,,,,,,Volcanoes
Mountain,Jalua,,15.042,39.82,1829.6734451708985,,,,,,,Volcanoes
Mountain,Tajumulco,,15.043,-91.903,13735.135735722657,,,,,,,Volcanoes
Mountain,Zubair Group,,15.05,42.18,255.8555084161377,,,,,,,Volcanoes
Mountain,Pinatubo,,15.13,120.35,4612.370435874025,,,,,,,Volcanoes
Mountain,Tacana,,15.132,-92.109,13278.287576572266,,,,,,,Volcanoes
Mountain,Arayat,,15.2,120.742,2963.064894289551,,,,,,,Volcanoes
Mountain,Meidob Volcanic Field,,15.32,26.47,4908.46985,,,,,,,Volcanoes
Mountain,Ly Son Group,,15.38,109.12,98.42153924217223,,,,,,,Volcanoes
Mountain,Mariana Back-Arc Segment at 15.5??N,,15.406,144.506,-13994.13947,,,,,,,Volcanoes
Mountain,Bir Borhut,,15.515,50.935,1504.5890388464356,,,,,,,Volcanoes
Mountain,Ruby,,15.605,145.572,-713.1899664,,,,,,,Volcanoes
Mountain,Amorong,,15.828,120.805,532.9761525494384,,,,,,,Volcanoes
Mountain,Northern EPR at 16??N,,15.83,-105.43,-7510.283302,,,,,,,Volcanoes
Mountain,East Diamante,,15.93,145.67,-1522.186508,,,,,,,Volcanoes
Mountain,Soufriere Guadeloupe,,16.044,-61.664,4739.788137006837,,,,,,,Volcanoes
Mountain,Utila Island,,16.1,-86.9,60.55007963127135,,,,,,,Volcanoes
Mountain,Unnamed,,16.13,-61.28,-877.6057767,,,,,,,Volcanoes
Mountain,Santo Tomas,,16.33,120.55,4677.264345712891,,,,,,,Volcanoes
Mountain,Anatahan,,16.35,145.67,813.1734852923584,,,,,,,Volcanoes
Mountain,Northern EPR at 17??N,,16.55,-105.32,-8704.497048,,,,,,,Volcanoes
Mountain,South Sarigan Seamount,,16.58,145.78,-2132.055596,,,,,,,Volcanoes
Mountain,Sarigan,,16.708,145.78,1004.1413916369629,,,,,,,Volcanoes
Mountain,Soufriere Hills,,16.72,-62.18,1793.330692998047,,,,,,,Volcanoes
Mountain,Zealandia Bank,,16.88,145.85,-461.3300281,,,,,,,Volcanoes
Mountain,Santo Antao,,17.07,-25.17,3207.922409865723,,,,,,,Volcanoes
Mountain,Patoc,,17.147,120.98,5845.777243100588,,,,,,,Volcanoes
Mountain,Nevis Peak,,17.15,-62.58,2441.1097629370115,,,,,,,Volcanoes
Mountain,Guguan,,17.307,145.845,924.9289500732422,,,,,,,Volcanoes
Mountain,Ambalatungan Group,,17.32,121.1,5030.829723276369,,,,,,,Volcanoes
Mountain,Liamuiga,,17.37,-62.8,2753.4351579174804,,,,,,,Volcanoes
Mountain,Alamagan,,17.6,145.83,1600.6211920678713,,,,,,,Volcanoes
Mountain,Saba,,17.63,-63.23,1191.0792854565432,,,,,,,Volcanoes
Mountain,Todra Volcanic Field,,17.68,8.5,5702.5416639599625,,,,,,,Volcanoes
Mountain,Pagan,,18.13,145.8,420.8074789465331,,,,,,,Volcanoes
Mountain,Cagua,,18.222,122.123,2976.655830058594,,,,,,,Volcanoes
Mountain,Bayuda Volcanic Field,,18.33,32.75,2302.9864790356446,,,,,,,Volcanoes
Mountain,San Martin,,18.57,-95.2,4496.345964272462,,,,,,,Volcanoes
Mountain,Agrigan,,18.77,145.67,2143.791848046875,,,,,,,Volcanoes
Mountain,Socorro,,18.78,-110.95,1961.973558466797,,,,,,,Volcanoes
Mountain,Camiguin de Babuyanes,,18.83,121.86,1924.526045900879,,,,,,,Volcanoes
Mountain,Kama'ehuakanaloa,,18.92,-155.27,-3946.611426,,,,,,,Volcanoes
Mountain,Popocatepetl,,19.023,-98.622,16670.382174589842,,,,,,,Volcanoes
Mountain,Didicas,,19.077,122.202,-172.6150568,,,,,,,Volcanoes
Mountain,Chichinautzin,,19.139,-99.16,9832.834473320312,,,,,,,Volcanoes
Mountain,Unnamed,,19.17,132.25,-19653.00055,,,,,,,Volcanoes
Mountain,Iztaccihuatl,,19.179,-98.642,17076.65205205078,,,,,,,Volcanoes
Mountain,Serdan-Oriental,,19.27,-97.47,8628.642040439454,,,,,,,Volcanoes
Mountain,Barcena,,19.3,-110.82,0,,,,,,,Volcanoes
Mountain,Papayo,,19.308,-98.7,11887.485353896484,,,,,,,Volcanoes
Mountain,Zitacuaro-Valle de Bravo,,19.4,-100.25,9903.327678085938,,,,,,,Volcanoes
Mountain,Kilauea,,19.421,-155.287,4087.0415501074217,,,,,,,Volcanoes
Mountain,Mauna Loa,,19.475,-155.608,13590.203667539063,,,,,,,Volcanoes
Mountain,Paricutin Volcanic Field,,19.48,-102.25,8445.406806044923,,,,,,,Volcanoes
Mountain,Cofre de Perote,,19.492,-97.15,13299.279826259766,,,,,,,Volcanoes
Mountain,Colima,,19.514,-103.62,12093.998051972656,,,,,,,Volcanoes
Mountain,Smith Volcano,,19.523,121.94,2527.733431,,,,,,,Volcanoes
Mountain,Babuyan Claro,,19.524,121.95,2914.207331479492,,,,,,,Volcanoes
Mountain,Naolinco Volcanic Field,,19.67,-96.75,4632.190842563475,,,,,,,Volcanoes
Mountain,Asuncion,,19.671,145.406,0,,,,,,,Volcanoes
Mountain,Hualalai,,19.692,-155.87,7936.360770849609,,,,,,,Volcanoes
Mountain,Jocotitlan,,19.73,-99.758,11448.107507548828,,,,,,,Volcanoes
Mountain,Mauna Kea,,19.82,-155.47,13587.86799140625,,,,,,,Volcanoes
Mountain,Tin Zaouatene Volcanic Field,,19.83,2.83,2301.976435275879,,,,,,,Volcanoes
Mountain,Michoacan-Guanajuato,,19.85,-101.75,6521.740819213868,,,,,,,Volcanoes
Mountain,Hainan Volcanic Field,,19.905,110.229,400.6380925,,,,,,,Volcanoes
Mountain,Maug Islands,,20.02,145.22,-493.3490561,,,,,,,Volcanoes
Mountain,Supply Reef,,20.13,145.1,-1420.545849,,,,,,,Volcanoes
Mountain,Unnamed,,20.3,143.2,-10650.32913,,,,,,,Volcanoes
Mountain,Unnamed,,20.33,121.75,-1123.957632,,,,,,,Volcanoes
Mountain,Ahyi,,20.42,145.03,-2682.355231,,,,,,,Volcanoes
Mountain,Iraya,,20.469,122.01,2778.2595264453125,,,,,,,Volcanoes
Mountain,Farallon de Pajaros,,20.546,144.893,1046.1120739978028,,,,,,,Volcanoes
Mountain,Mascota Volcanic Field,,20.567,-104.817,4131.744997573243,,,,,,,Volcanoes
Mountain,Haleakala,,20.708,-156.25,9967.867151,,,,,,,Volcanoes
Mountain,Leizhou Bandao,,20.83,109.78,14.523693734703064,,,,,,,Volcanoes
Mountain,Popa,,20.92,95.25,4297.974491,,,,,,,Volcanoes
Mountain,Unnamed,,20.93,134.75,-19196.26853,,,,,,,Volcanoes
Mountain,Unnamed,,21,142.9,-12471.07038,,,,,,,Volcanoes
Mountain,Ceboruco,,21.125,-104.508,7262.779328076172,,,,,,,Volcanoes
Mountain,Daikoku,,21.324,144.194,-1137.803082,,,,,,,Volcanoes
Mountain,Sanganguey,,21.45,-104.73,7263.151787,,,,,,,Volcanoes
Mountain,NW Eifuku,,21.485,144.043,-5467.427346,,,,,,,Volcanoes
Mountain,Kasuga 2,,21.6,143.637,-2343.103879,,,,,,,Volcanoes
Mountain,Unnamed,,21.75,-158.75,-4259.590425,,,,,,,Volcanoes
Mountain,Kasuga 1,,21.765,143.71,-3555.398089,,,,,,,Volcanoes
Mountain,Unnamed,,21.83,121.18,-3334.359904,,,,,,,Volcanoes
Mountain,Fukujin,,21.93,143.47,-1383.764957,,,,,,,Volcanoes
Mountain,Lower Chindwin,,22.28,95.1,317.04908669647216,,,,,,,Volcanoes
Mountain,Tahalra Volcanic Field,,22.67,5,4085.6954925830064,,,,,,,Volcanoes
Mountain,Singu Plateau,,22.7,95.98,1512.3947507373048,,,,,,,Volcanoes
Mountain,In Ezzane Volc Field,,23,10.833,2792.8048374243162,,,,,,,Volcanoes
Mountain,Nikko,,23.078,142.326,-1385.631556,,,,,,,Volcanoes
Mountain,Atakor Volcanic Field,,23.33,5.83,2918,,,,,,,Volcanoes
Mountain,Minami-Hiyoshi,,23.5,141.935,-645.9711937,,,,,,,Volcanoes
Mountain,Unnamed,,23.58,-163.83,-13236.75083,,,,,,,Volcanoes
Mountain,Manzaz Volcanic Field,,23.92,5.83,4271.469853637694,,,,,,,Volcanoes
Mountain,Unnamed,,24,121.83,-9734.381239,,,,,,,Volcanoes
Mountain,Durango Volcanic Field,,24.15,-104.45,6096.850813076172,,,,,,,Volcanoes
Mountain,Fukutoku-Oka-no-Ba,,24.285,141.481,-159.6408555,,,,,,,Volcanoes
Mountain,Kita-Fukutokutai,,24.417,141.417,-273.9861594,,,,,,,Volcanoes
Mountain,Submarine Volcano NNE of Iriomotejima,,24.57,123.93,-3448.754769,,,,,,,Volcanoes
Mountain,Ioto,,24.751,141.289,357.17339544769294,,,,,,,Volcanoes
Mountain,Kueishantao,,24.841,121.953,1187.0387099243162,,,,,,,Volcanoes
Mountain,Wau-en-Namus,,25.05,17.55,1353.8005591247559,,,,,,,Volcanoes
Mountain,Tatun Volcanic Group,,25.178,121.553,2933.5365333032228,,,,,,,Volcanoes
Mountain,Tengchong,,25.23,98.5,6741.443759648438,,,,,,,Volcanoes
Mountain,Unnamed,,25.42,122.33,-1077.529661,,,,,,,Volcanoes
Mountain,Kita-Ioto,,25.424,141.284,912.9144555212403,,,,,,,Volcanoes
Mountain,Ormus Islands,,26,57,-311.6798,,,,,,,Volcanoes
Mountain,Comondu-La Purisima,,26,-111.92,913.5712643103027,,,,,,,Volcanoes
Mountain,Kaitoku Seamount,,26.122,141.096,-1017.732928,,,,,,,Volcanoes
Mountain,Unnamed,,26.133,144.483,-10865.1064,,,,,,,Volcanoes
Mountain,Zengyu,,26.18,122.458,-347.76904,,,,,,,Volcanoes
Mountain,Kaikata Seamount,,26.667,140.929,-787.0894656,,,,,,,Volcanoes
Mountain,Nishinoshima,,27.247,140.874,-5.249333518,,,,,,,Volcanoes
Mountain,Haruj,,27.25,17.5,2748.3232631713868,,,,,,,Volcanoes
Mountain,Tres Virgenes,,27.47,-112.591,6302.218901689453,,,,,,,Volcanoes
Mountain,Doyo Seamount,,27.68,140.8,-1897.411657,,,,,,,Volcanoes
Mountain,Hierro,,27.73,-18.03,4131.012896069337,,,,,,,Volcanoes
Mountain,Io-Torishima,,27.881,128.223,567.4417933,,,,,,,Volcanoes
Mountain,Gran Canaria,,28,-15.58,4282.754149028318,,,,,,,Volcanoes
Mountain,Unnamed,,28,-115,-260.7903351,,,,,,,Volcanoes
Mountain,Bazman,,28.07,60,9562.756301230469,,,,,,,Volcanoes
Mountain,Kuh-e Nader,,28.17,60.67,5982.431117583006,,,,,,,Volcanoes
Mountain,Tenerife,,28.271,-16.641,11807.475630566407,,,,,,,Volcanoes
Mountain,Mokuyo Seamount,,28.327,140.572,-3123.374698,,,,,,,Volcanoes
Mountain,Fuerteventura,,28.358,-14.02,1214.9056250195313,,,,,,,Volcanoes
Mountain,San Borja Volcanic Field,,28.5,-113.75,3023.792273496094,,,,,,,Volcanoes
Mountain,La Palma,,28.57,-17.83,5491.970368159181,,,,,,,Volcanoes
Mountain,Suiyo Seamount,,28.575,140.633,-3242.845214,,,,,,,Volcanoes
Mountain,Taftan,,28.6,61.13,12676.688372148437,,,,,,,Volcanoes
Mountain,Yokoatejima,,28.797,128.997,1257.3489894372558,,,,,,,Volcanoes
Mountain,Lanzarote,,29.03,-13.63,1042.6171704016112,,,,,,,Volcanoes
Mountain,Guadalupe,,29.07,-118.28,3073.702532587891,,,,,,,Volcanoes
Mountain,Coronado,,29.08,-113.513,275.89561063690184,,,,,,,Volcanoes
Mountain,Jaraguay Volcanic Field,,29.33,-114.5,1961.0870668481446,,,,,,,Volcanoes
Mountain,Qal'eh Hasan Ali,,29.4,57.57,7146.649126279297,,,,,,,Volcanoes
Mountain,Akusekijima,,29.465,129.594,1787.6905477685548,,,,,,,Volcanoes
Mountain,Suwanosejima,,29.638,129.714,2476.4372649389647,,,,,,,Volcanoes
Mountain,Sofugan,,29.794,140.342,-271.7552122,,,,,,,Volcanoes
Mountain,Nakanoshima,,29.859,129.857,3058.589723,,,,,,,Volcanoes
Mountain,Kuchinoshima,,29.968,129.926,1865.2424445507813,,,,,,,Volcanoes
Mountain,Kuchino-shima,,29.97,129.93,785.5480175134278,,,,,,,Volcanoes
Mountain,Kuchinoerabujima,,30.443,130.217,2028.3753250683594,,,,,,,Volcanoes
Mountain,San Quintin Volcanic Field,,30.468,-115.996,788.4861354882812,,,,,,,Volcanoes
Mountain,Izu-Torishima,,30.484,140.303,1157.4220401953125,,,,,,,Volcanoes
Mountain,Kikai,,30.793,130.305,2199.0174524121094,,,,,,,Volcanoes
Mountain,Ata,,31.22,130.57,372.4382925192261,,,,,,,Volcanoes
Mountain,Sumisujima,,31.44,140.051,-1276.34428,,,,,,,Volcanoes
Mountain,Aira,,31.577,130.659,3196.398619562988,,,,,,,Volcanoes
Mountain,Unnamed,,31.75,-124.25,-14410.80134,,,,,,,Volcanoes
Mountain,Unnamed,,31.75,-124.25,-14410.80134,,,,,,,Volcanoes
Mountain,Yonemaru-Sumiyoshiike,,31.771,130.592,180.4462,,,,,,,Volcanoes
Mountain,Pinacate,,31.85,-113.5,1443.146779342041,,,,,,,Volcanoes
Mountain,Myojinsho,,31.888,139.918,-110.2897224,,,,,,,Volcanoes
Mountain,Kirishimayama,,31.934,130.862,5386.354313398438,,,,,,,Volcanoes
Mountain,Kita-Bayonnaise,,32.1,139.85,-4081.838743,,,,,,,Volcanoes
Mountain,Aogashima,,32.458,139.759,1189.8582819226074,,,,,,,Volcanoes
Mountain,Fukue,,32.657,128.849,939.5172139440917,,,,,,,Volcanoes
Mountain,Unnamed,,32.658,36.425,2483.6179071240235,,,,,,,Volcanoes
Mountain,Madeira,,32.73,-16.97,2071.4886144262696,,,,,,,Volcanoes
Mountain,Unzendake,,32.761,130.299,4719.4987528222655,,,,,,,Volcanoes
Mountain,Asosan,,32.885,131.085,3905.547259497069,,,,,,,Volcanoes
Mountain,Es Safa,,33.08,37.15,2060.520308,,,,,,,Volcanoes
Mountain,Kujusan,,33.086,131.249,5854.099891542969,,,,,,,Volcanoes
Mountain,Hachijojima,,33.137,139.766,2699.184153666992,,,,,,,Volcanoes
Mountain,Unnamed,,33.15,36.258,2241.0744410498046,,,,,,,Volcanoes
Mountain,Salton Buttes,,33.197,-115.616,-229.6300646,,,,,,,Volcanoes
Mountain,Yufu-Tsurumi,,33.282,131.39,4990.417159570313,,,,,,,Volcanoes
Mountain,Unnamed,,33.308,36.925,2213.6807086279296,,,,,,,Volcanoes
Mountain,Halla,,33.361,126.53,6255.0628340869125,,,,,,,Volcanoes
Mountain,Kurose Hole,,33.4,139.68,-2166.290753,,,,,,,Volcanoes
Mountain,Carrizozo,,33.78,-105.93,5515.399619,,,,,,,Volcanoes
Mountain,Mikurajima,,33.874,139.602,2607.712516228027,,,,,,,Volcanoes
Mountain,Dacht-I-Navar Group,,33.95,67.92,3800,,,,,,,Volcanoes
Mountain,Miyakejima,,34.094,139.526,2429.4830458911133,,,,,,,Volcanoes
Mountain,Kozushima,,34.219,139.153,1776.5606424926757,,,,,,,Volcanoes
Mountain,Vakak Group,,34.25,67.97,3190,,,,,,,Volcanoes
Mountain,Red Hill,,34.25,-108.83,7269.213651,,,,,,,Volcanoes
Mountain,Niijima,,34.397,139.27,1360.7994775366212,,,,,,,Volcanoes
Mountain,Abu,,34.483,131.517,878.0914747827151,,,,,,,Volcanoes
Mountain,Toshima,,34.52,139.279,1597.7074040527343,,,,,,,Volcanoes
Mountain,Izu-Oshima,,34.724,139.394,2386.970896772461,,,,,,,Volcanoes
Mountain,Lavic Lake,,34.75,-116.625,2741.0388932568358,,,,,,,Volcanoes
Mountain,Zuni-Bandera,,34.8,-108,7253.446235380859,,,,,,,Volcanoes
Mountain,Izu-Tobu,,34.9,139.098,1162.2096356018067,,,,,,,Volcanoes
Mountain,Sanbesan,,35.141,132.622,3580.957162,,,,,,,Volcanoes
Mountain,Hakoneyama,,35.233,139.021,4673.128052314453,,,,,,,Volcanoes
Mountain,San Francisco Volcanic Field,,35.347,-111.678,12595.208037919921,,,,,,,Volcanoes
Mountain,Fujisan,,35.361,138.728,12184.974880107422,,,,,,,Volcanoes
Mountain,Ashikule Volcanic Field,,35.742,81.646,15618.557365976563,,,,,,,Volcanoes
Mountain,Unnamed,,35.85,91.7,17496.474618183594,,,,,,,Volcanoes
Mountain,Ontakesan,,35.893,137.48,9994.759466455078,,,,,,,Volcanoes
Mountain,Damavand,,35.951,52.109,17657.31107089844,,,,,,,Volcanoes
Mountain,Coso Volc Field,,36.03,-117.82,5019.698816767578,,,,,,,Volcanoes
Mountain,Yokodake,,36.087,138.32,8101.904620214844,,,,,,,Volcanoes
Mountain,Norikuradake,,36.106,137.554,9753.273302333984,,,,,,,Volcanoes
Mountain,Hakusan,,36.155,136.771,8809.089842,,,,,,,Volcanoes
Mountain,Oki-Dogo,,36.176,133.334,333.36390162841815,,,,,,,Volcanoes
Mountain,Akandanayama,,36.2,137.573,6834.948500634766,,,,,,,Volcanoes
Mountain,Yakedake,,36.227,137.587,7997.994265839844,,,,,,,Volcanoes
Mountain,Golden Trout Creek,,36.358,-118.32,9024.737789560546,,,,,,,Volcanoes
Mountain,Uinkaret Field,,36.38,-113.13,6592.197579101562,,,,,,,Volcanoes
Mountain,Santorini,,36.404,25.396,372.94128690246595,,,,,,,Volcanoes
Mountain,Asamayama,,36.406,138.523,8352.128744189453,,,,,,,Volcanoes
Mountain,Washiba-Kumonotaira,,36.408,137.594,8366.637811,,,,,,,Volcanoes
Mountain,Harunasan,,36.477,138.851,4521.940280908203,,,,,,,Volcanoes
Mountain,Sharat Kovakab,,36.536,40.858,1676.772964748535,,,,,,,Volcanoes
Mountain,Akagisan,,36.56,139.193,5969.028613847656,,,,,,,Volcanoes
Mountain,Midagahara,,36.571,137.59,8497.195378076172,,,,,,,Volcanoes
Mountain,Nisyros,,36.589,27.155,2265.0435564257814,,,,,,,Volcanoes
Mountain,Kusatsu-Shiranesan,,36.618,138.528,7051.624914228516,,,,,,,Volcanoes
Mountain,Unnamed,,36.67,37,1901.3316845507813,,,,,,,Volcanoes
Mountain,Yali,,36.671,27.14,111.37956440017703,,,,,,,Volcanoes
Mountain,Shiga,,36.688,138.519,6385.876316757813,,,,,,,Volcanoes
Mountain,Milos,,36.699,24.439,0,,,,,,,Volcanoes
Mountain,Nantaisan,,36.765,139.491,8102.834565341796,,,,,,,Volcanoes
Mountain,Pantelleria,,36.77,12.02,1318.4251981896973,,,,,,,Volcanoes
Mountain,Nikko-Shiranesan,,36.799,139.376,8284.416563955077,,,,,,,Volcanoes
Mountain,Omanago Group,,36.807,139.476,5851.2676038867185,,,,,,,Volcanoes
Mountain,Myokosan,,36.891,138.114,7813.213127832031,,,,,,,Volcanoes
Mountain,Takaharayama,,36.9,139.777,5881.611769448244,,,,,,,Volcanoes
Mountain,Niigata-Yakeyama,,36.921,138.036,7744.455660439453,,,,,,,Volcanoes
Mountain,Hiuchigatake,,36.955,139.285,7681.365171318359,,,,,,,Volcanoes
Mountain,Ubehebe Craters,,37.02,-117.45,2401.766315732422,,,,,,,Volcanoes
Mountain,Campi Flegrei del Mar di Sicilia,,37.1,12.7,-1141.362965,,,,,,,Volcanoes
Mountain,Nasudake,,37.125,139.963,6229.714019760743,,,,,,,Volcanoes
Mountain,Santa Clara,,37.257,-113.625,4742.891158041994,,,,,,,Volcanoes
Mountain,Bald Knoll,,37.328,-112.408,6904.942690917968,,,,,,,Volcanoes
Mountain,Numazawa,,37.444,139.566,2598.330563366699,,,,,,,Volcanoes
Mountain,Ulleungdo,,37.5,130.87,3025.685004189453,,,,,,,Volcanoes
Mountain,Markagunt Plateau,,37.58,-112.67,8898.576034990234,,,,,,,Volcanoes
Mountain,Monaco Bank,,37.6,-25.88,-670.9042962,,,,,,,Volcanoes
Mountain,Bandaisan,,37.601,140.072,5808.120873,,,,,,,Volcanoes
Mountain,Methana,,37.619,23.333,1230.9120351843262,,,,,,,Volcanoes
Mountain,Mammoth Mountain,,37.631,-119.032,10825.368671953125,,,,,,,Volcanoes
Mountain,Adatarayama,,37.647,140.281,5669.397250195312,,,,,,,Volcanoes
Mountain,Karapinar Field,,37.667,33.6,3372.925793706056,,,,,,,Volcanoes
Mountain,Karaca Dag,,37.67,39.83,6005.165913027344,,,,,,,Volcanoes
Mountain,Inyo Craters,,37.692,-119.02,8158.077791,,,,,,,Volcanoes
Mountain,Azumayama,,37.735,140.244,6388.904445571287,,,,,,,Volcanoes
Mountain,Etna,,37.748,14.999,10758.10504,,,,,,,Volcanoes
Mountain,Sahand,,37.75,46.43,9520.968044,,,,,,,Volcanoes
Mountain,Agua de Pau,,37.77,-25.47,2092.5006885253906,,,,,,,Volcanoes
Mountain,Furnas,,37.77,-25.32,769.6413301464844,,,,,,,Volcanoes
Mountain,Picos Fissural Volcanic System,,37.78,-25.67,900.6746835644532,,,,,,,Volcanoes
Mountain,Mono-Inyo Craters,,37.804,-119.029,7688.777498798828,,,,,,,Volcanoes
Mountain,Sete Cidades,,37.865,-25.785,853.0184,,,,,,,Volcanoes
Mountain,Mono Lake Volcanic Field,,38,-119.03,6546.4604587792965,,,,,,,Volcanoes
Mountain,Hasandag-Keciboyduran,,38.13,34.17,10235.948464648438,,,,,,,Volcanoes
Mountain,Zaozan [Zaosan],,38.144,140.44,6030.843932734375,,,,,,,Volcanoes
Mountain,Don Joao de Castro Bank,,38.23,-26.63,-1504.772665,,,,,,,Volcanoes
Mountain,Gollu Dag,,38.25,34.57,5279.804709072266,,,,,,,Volcanoes
Mountain,Sabalan,,38.268,47.835,15670.794490351562,,,,,,,Volcanoes
Mountain,Ch'uga-ryong,,38.33,127.33,1546.2266110180663,,,,,,,Volcanoes
Mountain,Vulcano,,38.404,14.962,705.6032741992187,,,,,,,Volcanoes
Mountain,Pico,,38.47,-28.4,7373.870524882813,,,,,,,Volcanoes
Mountain,Lipari,,38.49,14.933,1920.6414624560546,,,,,,,Volcanoes
Mountain,Erciyes Volcanic Complex,,38.531,35.447,12635.570539980468,,,,,,,Volcanoes
Mountain,Acigol-Nevsehir,,38.537,34.621,5507.700538164063,,,,,,,Volcanoes
Mountain,Fayal,,38.576,-28.713,3399.0491618115248,,,,,,,Volcanoes
Mountain,Kula,,38.58,28.52,2351.2829509228513,,,,,,,Volcanoes
Mountain,Hijiori,,38.599,140.162,1689.29939,,,,,,,Volcanoes
Mountain,Panarea,,38.638,15.064,1290.819104267578,,,,,,,Volcanoes
Mountain,Sao Jorge,,38.65,-28.08,2845.2019588183593,,,,,,,Volcanoes
Mountain,Nemrut Dagi,,38.654,42.229,9519.833045878906,,,,,,,Volcanoes
Mountain,Naruko,,38.729,140.734,1529.192235024414,,,,,,,Volcanoes
Mountain,Terceira,,38.73,-27.32,3311.0089498022467,,,,,,,Volcanoes
Mountain,Pico Fracture Zone,,38.75,-38.08,-15610.7109,,,,,,,Volcanoes
Mountain,Stromboli,,38.789,15.213,2839.822134145508,,,,,,,Volcanoes
Mountain,Calatrava Volcanic Field,,38.87,-4.02,2049.693776437988,,,,,,,Volcanoes
Mountain,Suphan Dagi,,38.92,42.82,12788.196882832031,,,,,,,Volcanoes
Mountain,Kurikomayama,,38.961,140.788,5334.044699760743,,,,,,,Volcanoes
Mountain,Clear Lake Volcanic Field,,38.97,-122.77,3889.4794737548814,,,,,,,Volcanoes
Mountain,Black Rock Desert,,38.97,-112.5,4725.023956513672,,,,,,,Volcanoes
Mountain,Graciosa,,39.02,-27.97,1035.501808602295,,,,,,,Volcanoes
Mountain,Chokaisan,,39.099,140.049,7283.814030039062,,,,,,,Volcanoes
Mountain,Girekol,,39.17,43.33,5949.783715834962,,,,,,,Volcanoes
Mountain,Unnamed,,39.25,45.167,2568.6061609765625,,,,,,,Volcanoes
Mountain,Marsili,,39.284,14.399,-2282.885727,,,,,,,Volcanoes
Mountain,Tenduruk Dagi,,39.356,43.874,11504.835762265626,,,,,,,Volcanoes
Mountain,Flores,,39.462,-31.216,2603.416626303711,,,,,,,Volcanoes
Mountain,Palinuro,,39.48,14.83,-476.0005432,,,,,,,Volcanoes
Mountain,Soda Lakes,,39.525,-118.878,3982.9397599999998,,,,,,,Volcanoes
Mountain,Dotsero,,39.661,-107.036,6794.250385302735,,,,,,,Volcanoes
Mountain,Corvo,,39.699,-31.111,2256.5374821142577,,,,,,,Volcanoes
Mountain,Ararat,,39.7,44.3,16404.273690742186,,,,,,,Volcanoes
Mountain,Tskhouk-Karckar,,39.742,45.992,10043.879953027345,,,,,,,Volcanoes
Mountain,Akita-Komagatake,,39.761,140.799,5343.352961879881,,,,,,,Volcanoes
Mountain,Vaiyots-Sar,,39.797,45.497,8128.417267675781,,,,,,,Volcanoes
Mountain,Iwatesan,,39.853,141.001,6542.061842,,,,,,,Volcanoes
Mountain,Unnamed,,39.95,-25.83,-9234.389553,,,,,,,Volcanoes
Mountain,Megata,,39.95,139.73,317.77455503234864,,,,,,,Volcanoes
Mountain,Hachimantai,,39.958,140.854,5294.427115,,,,,,,Volcanoes
Mountain,Akita-Yakeyama,,39.964,140.757,4472.008795678712,,,,,,,Volcanoes
Mountain,Porak,,40.028,45.74,9918.082647236328,,,,,,,Volcanoes
Mountain,Ghegham Volcanic Ridge,,40.283,45,8618.397425302734,,,,,,,Volcanoes
Mountain,Lassen Volcanic Center,,40.492,-121.508,10198.234023388672,,,,,,,Volcanoes
Mountain,Towada,,40.51,140.88,3141.236293117676,,,,,,,Volcanoes
Mountain,Aragats,,40.53,44.2,11126.978471835937,,,,,,,Volcanoes
Mountain,Eagle Lake Field,,40.63,-120.83,5367.018503,,,,,,,Volcanoes
Mountain,Iwakisan,,40.656,140.303,5289.688880361328,,,,,,,Volcanoes
Mountain,Hakkodasan,,40.659,140.877,5160.8081777001935,,,,,,,Volcanoes
Mountain,Tumble Buttes,,40.68,-121.55,6461.999654423828,,,,,,,Volcanoes
Mountain,Ischia,,40.73,13.897,2373.7996778393554,,,,,,,Volcanoes
Mountain,Kars Plateau,,40.75,42.9,7828.875614492187,,,,,,,Volcanoes
Mountain,Twin Buttes,,40.78,-121.6,4785.158005097656,,,,,,,Volcanoes
Mountain,Vesuvius,,40.821,14.426,3183.1731338061522,,,,,,,Volcanoes
Mountain,Campi Flegrei,,40.827,14.139,318.2195279684448,,,,,,,Volcanoes
Mountain,Big Cave,,40.955,-121.365,3978.161876552734,,,,,,,Volcanoes
Mountain,Escanaba Segment,,40.98,-127.5,-10799.22448,,,,,,,Volcanoes
Mountain,Brushy Butte,,41.178,-121.443,3788.397802597656,,,,,,,Volcanoes
Mountain,Osorezan,,41.279,141.12,2855.9690172875976,,,,,,,Volcanoes
Mountain,Xianjindao,,41.33,128,3852.977726,,,,,,,Volcanoes
Mountain,Shasta,,41.409,-122.193,13804.33935,,,,,,,Volcanoes
Mountain,Oshima-Oshima,,41.51,139.367,2281.4886067285156,,,,,,,Volcanoes
Mountain,Samsari Volcanic Center,,41.542,43.7,8998.038512285157,,,,,,,Volcanoes
Mountain,Honggeertu,,41.59,113.111,5253.085807631837,,,,,,,Volcanoes
Mountain,Medicine Lake,,41.611,-121.554,7863.446985400391,,,,,,,Volcanoes
Mountain,Colli Albani,,41.757,12.725,2452.6958299267576,,,,,,,Volcanoes
Mountain,Esan,,41.805,141.166,2002.164248959961,,,,,,,Volcanoes
Mountain,Changbaishan,,41.98,128.08,7993.1643182812495,,,,,,,Volcanoes
Mountain,Hokkaido-Komagatake,,42.063,140.677,3558.879976191406,,,,,,,Volcanoes
Mountain,Jackson Segment,,42.15,-127.05,-9909.418378,,,,,,,Volcanoes
Mountain,Olot Volcanic Field,,42.17,2.53,2392.123241328125,,,,,,,Volcanoes
Mountain,Longgang Group,,42.33,126.5,2686.1919551782225,,,,,,,Volcanoes
Mountain,Unnamed,,42.45,44.25,9221.053130693359,,,,,,,Volcanoes
Mountain,Kuttara,,42.491,141.16,1697.4011661499023,,,,,,,Volcanoes
Mountain,Tianshan Volc Group,,42.5,82.5,9230.278090234375,,,,,,,Volcanoes
Mountain,Toya,,42.544,140.839,2375.3331661645507,,,,,,,Volcanoes
Mountain,Kabargin Oth Group,,42.55,44,9345.176375058594,,,,,,,Volcanoes
Mountain,Vulsini,,42.6,11.93,994.09452,,,,,,,Volcanoes
Mountain,North Gorda Ridge Segment,,42.67,-126.78,-10362.57639,,,,,,,Volcanoes
Mountain,Shikotsu,,42.688,141.38,3044.9809650805664,,,,,,,Volcanoes
Mountain,Kazbek,,42.7,44.5,14588.47292828125,,,,,,,Volcanoes
Mountain,Yoteizan,,42.827,140.812,6150.881746333006,,,,,,,Volcanoes
Mountain,Niseko,,42.875,140.659,4276.311415498047,,,,,,,Volcanoes
Mountain,Wapi Lava Field,,42.886,-113.217,5220.343088510744,,,,,,,Volcanoes
Mountain,Turfan,,42.9,89.25,-134.51444,,,,,,,Volcanoes
Mountain,Crater Lake,,42.942,-122.107,6174.5589021923815,,,,,,,Volcanoes
Mountain,Diamond Craters,,43.1,-118.75,4416.194065869141,,,,,,,Volcanoes
Mountain,Jordan Craters,,43.147,-117.46,4511.110545258787,,,,,,,Volcanoes
Mountain,Black Butte Crater Lava Field,,43.183,-114.352,4816.679620561525,,,,,,,Volcanoes
Mountain,Cinnamon Butte,,43.241,-122.111,6300.861630356444,,,,,,,Volcanoes
Mountain,Larderello,,43.25,10.87,1649.4830601794433,,,,,,,Volcanoes
Mountain,Shikaribetsu Group,,43.28,143.08,4056.2091833789063,,,,,,,Volcanoes
Mountain,Elbrus,,43.351,42.442,18316.485973574217,,,,,,,Volcanoes
Mountain,Four Craters Lava Field,,43.361,-120.669,4597.680346616213,,,,,,,Volcanoes
Mountain,Craters of the Moon,,43.371,-113.493,5566.251036777344,,,,,,,Volcanoes
Mountain,Akan,,43.384,144.013,4629.454272773438,,,,,,,Volcanoes
Mountain,Tokachidake,,43.418,142.686,6776.393196103516,,,,,,,Volcanoes
Mountain,Maruyama,,43.418,143.031,5505.121762680663,,,,,,,Volcanoes
Mountain,Squaw Ridge Field,,43.472,-120.754,5567.5778706298815,,,,,,,Volcanoes
Mountain,Hell's Half Acre,,43.492,-112.45,5343.912050336912,,,,,,,Volcanoes
Mountain,Devils Garden,,43.512,-120.861,4844.158257534181,,,,,,,Volcanoes
Mountain,Davis Lake,,43.57,-121.82,6191.828567919922,,,,,,,Volcanoes
Mountain,Mashu,,43.572,144.561,2565.244020864258,,,,,,,Volcanoes
Mountain,Kussharo,,43.615,144.427,1877.8161276831054,,,,,,,Volcanoes
Mountain,Taisetsuzan,,43.664,142.854,7475.036700097657,,,,,,,Volcanoes
Mountain,Newberry,,43.722,-121.229,6747.904515371094,,,,,,,Volcanoes
Mountain,Tomariyama [Golovnin],,43.844,145.504,1670.2692561340332,,,,,,,Volcanoes
Mountain,Raususan [Mendeleev],,43.979,145.733,2861.059285402832,,,,,,,Volcanoes
Mountain,Bachelor,,43.979,-121.688,9022.591146201172,,,,,,,Volcanoes
Mountain,Tenchozan,,44.044,145.086,3361.434843842775,,,,,,,Volcanoes
Mountain,Rausudake,,44.076,145.122,5283.598580815431,,,,,,,Volcanoes
Mountain,Jingpohu,,44.08,128.83,1362.4227764538575,,,,,,,Volcanoes
Mountain,South Sister,,44.1,-121.77,10149.944159638671,,,,,,,Volcanoes
Mountain,Shiretoko-Iozan,,44.133,145.161,4909.8495492626935,,,,,,,Volcanoes
Mountain,Three Sisters,,44.133,-121.767,7245.709508,,,,,,,Volcanoes
Mountain,East Blanco Depression,,44.267,-129.879,-9588.832411,,,,,,,Volcanoes
Mountain,Belknap,,44.285,-121.841,6743.108209238281,,,,,,,Volcanoes
Mountain,Chachadake [Tiatia],,44.353,146.252,5633.2022799999995,,,,,,,Volcanoes
Mountain,Sand Mountain Field,,44.38,-121.93,5064.060243071288,,,,,,,Volcanoes
Mountain,Blue Lake Crater,,44.413,-121.769,3461.5044687744125,,,,,,,Volcanoes
Mountain,Yellowstone,,44.43,-110.67,8488.866722236327,,,,,,,Volcanoes
Mountain,Ruruidake [Smirnov],,44.454,146.139,4628.052146206056,,,,,,,Volcanoes
Mountain,Berutarubesan [Berutarube],,44.462,146.932,3833.386000703125,,,,,,,Volcanoes
Mountain,Southern Sikhote-Alin,,44.5,135.5,1240.5949586584472,,,,,,,Volcanoes
Mountain,Moekeshiwan [Lvinaya Past],,44.608,146.994,-617.9061847,,,,,,,Volcanoes
Mountain,Jefferson,,44.674,-121.8,10189.92138727539,,,,,,,Volcanoes
Mountain,Etorofu-Atosanupuri [Atosanupuri],,44.808,147.131,3811.7789940087873,,,,,,,Volcanoes
Mountain,Cleft Segment,,44.83,-130.3,-7026.052625,,,,,,,Volcanoes
Mountain,Hitokappu Volcano Group,,44.857,147.403,3143.0465222192383,,,,,,,Volcanoes
Mountain,Etorofu-Yakeyama [Grozny Group],,45.012,147.871,3654.706776542969,,,,,,,Volcanoes
Mountain,Unnamed,,45.022,147.019,-470.2659817,,,,,,,Volcanoes
Mountain,Odamoisan [Tebenkov],,45.028,147.918,3862.627208090819,,,,,,,Volcanoes
Mountain,Sashiusudake [Baransky],,45.1,148.019,3577.1620886376936,,,,,,,Volcanoes
Mountain,Rishirizan,,45.179,141.242,5405.617233603515,,,,,,,Volcanoes
Mountain,Rucharuyama [Golets-Tornyi Group],,45.25,148.35,917.0623632214356,,,,,,,Volcanoes
Mountain,Middle Gobi,,45.28,106.7,4293.502184072266,,,,,,,Volcanoes
Mountain,Chirippusan [Chirip],,45.338,147.92,4975.774329,,,,,,,Volcanoes
Mountain,Hood,,45.374,-121.695,10916.975876328124,,,,,,,Volcanoes
Mountain,Moyorodake [Medvezhia],,45.389,148.838,3648.655324833984,,,,,,,Volcanoes
Mountain,Rakkibetsudake [Demon],,45.5,148.85,3216.2144205810546,,,,,,,Volcanoes
Mountain,Dariganga Volcanic Field,,45.754,114.279,3976.37808,,,,,,,Volcanoes
Mountain,Ivao Group,,45.759,149.676,3988.611544189453,,,,,,,Volcanoes
Mountain,Chaine des Puys,,45.786,2.981,3138.4150190234373,,,,,,,Volcanoes
Mountain,Rudakov,,45.874,149.819,1741.8434920727539,,,,,,,Volcanoes
Mountain,West Crater,,45.88,-122.08,3457.469901,,,,,,,Volcanoes
Mountain,Tri Sestry,,45.93,149.92,1482.6367069213868,,,,,,,Volcanoes
Mountain,Indian Heaven,,45.93,-121.82,4448.971627895507,,,,,,,Volcanoes
Mountain,Axial Seamount,,45.95,-130,-5045.291131,,,,,,,Volcanoes
Mountain,Kolokol Group,,46.042,150.083,3113.408426105957,,,,,,,Volcanoes
Mountain,Unnamed,,46.1,150.5,-583.3826227,,,,,,,Volcanoes
Mountain,St. Helens,,46.2,-122.18,6957.862255644532,,,,,,,Volcanoes
Mountain,Adams,,46.206,-121.49,12045.294879277344,,,,,,,Volcanoes
Mountain,Unnamed,,46.47,151.28,-2204.954764,,,,,,,Volcanoes
Mountain,CoAxial Segment,,46.52,-129.58,-8041.909943,,,,,,,Volcanoes
Mountain,Chirpoi,,46.532,150.871,2126.5061625927733,,,,,,,Volcanoes
Mountain,Milna,,46.815,151.786,4897.487526767578,,,,,,,Volcanoes
Mountain,Goriaschaia Sopka,,46.83,151.75,2453.7064744262693,,,,,,,Volcanoes
Mountain,Rainier,,46.853,-121.76,14372.37322484375,,,,,,,Volcanoes
Mountain,Cobb Segment,,46.88,-129.33,-8385.276762,,,,,,,Volcanoes
Mountain,Zavaritzki Caldera,,46.918,151.952,154.19948,,,,,,,Volcanoes
Mountain,Prevo Peak,,47.014,152.117,4440.515615229494,,,,,,,Volcanoes
Mountain,Uratman,,47.12,152.25,1835.3250044555664,,,,,,,Volcanoes
Mountain,Bus-Obo,,47.12,109.08,4061.851731567381,,,,,,,Volcanoes
Mountain,Ketoi,,47.35,152.475,2260.0073548876953,,,,,,,Volcanoes
Mountain,Arxan-Chaihe,,47.45,120.8,4253.849355898437,,,,,,,Volcanoes
Mountain,Ushishur,,47.513,152.814,0,,,,,,,Volcanoes
Mountain,Srednii,,47.586,152.893,6.055053018608095,,,,,,,Volcanoes
Mountain,Rasshua,,47.77,153.02,2196.473119,,,,,,,Volcanoes
Mountain,Endeavour Segment,,47.95,-129.1,-7118.018671,,,,,,,Volcanoes
Mountain,Unnamed,,48.08,153.33,-211.5323542,,,,,,,Volcanoes
Mountain,Sarychev Peak,,48.092,153.2,4478.633753598631,,,,,,,Volcanoes
Mountain,Glacier Peak,,48.112,-121.113,10521.745993427734,,,,,,,Volcanoes
Mountain,Taryatu-Chulutu,,48.133,99.95,6698.709137,,,,,,,Volcanoes
Mountain,Raikoke,,48.292,153.25,1254.7129434313965,,,,,,,Volcanoes
Mountain,Khanuy Gol,,48.67,102.75,4869.730146552734,,,,,,,Volcanoes
Mountain,Wudalianchi,,48.722,126.15,1009.0400237731933,,,,,,,Volcanoes
Mountain,Baker,,48.777,-121.813,10361.34527727539,,,,,,,Volcanoes
Mountain,West Valley Segment,,48.78,-128.64,-8376.558827,,,,,,,Volcanoes
Mountain,Sinarka,,48.873,154.182,2974.889254711914,,,,,,,Volcanoes
Mountain,Ekarma,,48.958,153.93,926.9543441271973,,,,,,,Volcanoes
Mountain,Chirinkotan,,48.98,153.48,2167.7795863549804,,,,,,,Volcanoes
Mountain,Unnamed,,49,-34.5,-13276.39324,,,,,,,Volcanoes
Mountain,Kharimkotan,,49.12,154.508,3217.438728183594,,,,,,,Volcanoes
Mountain,Tao-Rusyr Caldera,,49.34,154.725,1259.84256,,,,,,,Volcanoes
Mountain,Keluo Group,,49.37,125.92,1201.0995242980957,,,,,,,Volcanoes
Mountain,Nemo Peak,,49.57,154.808,1846.292910246582,,,,,,,Volcanoes
Mountain,Garibaldi,,49.85,-123,7794.357108681641,,,,,,,Volcanoes
Mountain,Garibaldi Lake,,49.933,-123,4816.27312,,,,,,,Volcanoes
Mountain,Cayley Volcanic Field,,50.12,-123.28,6369.152523212891,,,,,,,Volcanoes
Mountain,Karpinsky Group,,50.148,155.373,4345.984410263672,,,,,,,Volcanoes
Mountain,West Eifel Volcanic Field,,50.17,6.85,1652.4633300598146,,,,,,,Volcanoes
Mountain,Shirinki,,50.2,154.98,2203.520197055664,,,,,,,Volcanoes
Mountain,Lomonosov Group,,50.25,155.43,4823.247708,,,,,,,Volcanoes
Mountain,Fuss Peak,,50.267,155.246,5623.246019941406,,,,,,,Volcanoes
Mountain,Chikurachki,,50.324,155.461,5776.391802426756,,,,,,,Volcanoes
Mountain,Vernadskii Ridge,,50.55,155.97,3378.390923,,,,,,,Volcanoes
Mountain,Meager,,50.63,-123.5,8003.9359824218745,,,,,,,Volcanoes
Mountain,Ebeko,,50.686,156.014,3604.0956544140627,,,,,,,Volcanoes
Mountain,Bridge River Cones,,50.8,-123.4,7367.891962929687,,,,,,,Volcanoes
Mountain,Alaid,,50.861,155.565,7486.944162851562,,,,,,,Volcanoes
Mountain,Mashkovtsev,,51.1,156.72,1528.606914265137,,,,,,,Volcanoes
Mountain,Kambalny,,51.306,156.875,6926.212082,,,,,,,Volcanoes
Mountain,Koshelev,,51.356,156.753,5942.392614492187,,,,,,,Volcanoes
Mountain,Kurile Lake,,51.45,157.12,262.4672,,,,,,,Volcanoes
Mountain,Diky Greben,,51.452,156.978,3396.8492528613283,,,,,,,Volcanoes
Mountain,Iliinsky,,51.498,157.203,5049.751423305663,,,,,,,Volcanoes
Mountain,Tunkin Depression,,51.5,102.5,6403.140375581056,,,,,,,Volcanoes
Mountain,Silverthrone,,51.518,-126.113,9306.878014765625,,,,,,,Volcanoes
Mountain,Yavinsky,,51.533,156.629,2119.8509674389647,,,,,,,Volcanoes
Mountain,Zheltovsky,,51.577,157.328,6246.094590664063,,,,,,,Volcanoes
Mountain,Kell,,51.65,157.35,1919.4077432641602,,,,,,,Volcanoes
Mountain,Belenkaya,,51.75,157.27,2414.3884585375977,,,,,,,Volcanoes
Mountain,Gareloi,,51.79,-178.794,5006.428075283203,,,,,,,Volcanoes
Mountain,Ksudach,,51.844,157.572,3289.7693955859377,,,,,,,Volcanoes
Mountain,Takawangha,,51.873,-178.006,4417.444405527343,,,,,,,Volcanoes
Mountain,Ozernoy,,51.88,157.38,1247.8448861608886,,,,,,,Volcanoes
Mountain,Tanaga,,51.885,-178.146,5708.574292490234,,,,,,,Volcanoes
Mountain,Bobrof,,51.91,-177.438,1569.4197708886718,,,,,,,Volcanoes
Mountain,Kanaga,,51.923,-177.168,3747.027659736328,,,,,,,Volcanoes
Mountain,Semisopochnoi,,51.93,179.58,1725.0131673461915,,,,,,,Volcanoes
Mountain,Moffett,,51.944,-176.747,2211.2823553149415,,,,,,,Volcanoes
Mountain,Little Sitkin,,51.95,178.543,2783.150348964844,,,,,,,Volcanoes
Mountain,Davidof,,51.97,178.33,0,,,,,,,Volcanoes
Mountain,Unnamed,,52,-173.5,-640.2070458,,,,,,,Volcanoes
Mountain,Segula,,52.015,178.136,3653.0463318847656,,,,,,,Volcanoes
Mountain,Olkoviy Volcanic Group,,52.02,157.53,1372.3996619104005,,,,,,,Volcanoes
Mountain,Sergief,,52.03,-174.93,-0.645819622,,,,,,,Volcanoes
Mountain,Khodutka,,52.062,157.711,6666.510687666016,,,,,,,Volcanoes
Mountain,Great Sitkin,,52.076,-176.13,4512.114581621094,,,,,,,Volcanoes
Mountain,Kiska,,52.103,177.602,3816.817598505859,,,,,,,Volcanoes
Mountain,Piratkovsky,,52.113,157.849,3954.9989539160156,,,,,,,Volcanoes
Mountain,Ostanets,,52.146,157.322,2290.2946504199217,,,,,,,Volcanoes
Mountain,Kasatochi,,52.177,-175.508,67.84061338592528,,,,,,,Volcanoes
Mountain,Koniuji,,52.22,-175.13,446.6274234185791,,,,,,,Volcanoes
Mountain,Otdelniy,,52.221,157.435,2664.4431739038087,,,,,,,Volcanoes
Mountain,Golaya,,52.263,157.787,2317.339152802734,,,,,,,Volcanoes
Mountain,Seguam,,52.315,-172.51,3286.58147,,,,,,,Volcanoes
Mountain,Wells Gray-Clearwater,,52.33,-120.57,5999.898226440431,,,,,,,Volcanoes
Mountain,Atka Volcanic Complex,,52.331,-174.139,4646.2597669238285,,,,,,,Volcanoes
Mountain,Buldir,,52.35,175.911,1924.3956853759767,,,,,,,Volcanoes
Mountain,Asacha,,52.355,157.827,5992.3729598876935,,,,,,,Volcanoes
Mountain,Korovin,,52.381,-174.166,5019.525403227538,,,,,,,Volcanoes
Mountain,Azas Plateau,,52.433,98.303,7178.668554746094,,,,,,,Volcanoes
Mountain,Visokiy,,52.435,157.933,4007.7322893212877,,,,,,,Volcanoes
Mountain,Mutnovsky,,52.449,158.196,7477.953091318359,,,,,,,Volcanoes
Mountain,Satah Mountain,,52.47,-124.7,5843.394709267578,,,,,,,Volcanoes
Mountain,Milbanke Sound Group,,52.498,-128.723,600.4456339263916,,,,,,,Volcanoes
Mountain,Amukta,,52.5,-171.252,2903.107262944336,,,,,,,Volcanoes
Mountain,Opala,,52.543,157.339,7983.838434,,,,,,,Volcanoes
Mountain,Gorely,,52.555,158.036,5127.337362006838,,,,,,,Volcanoes
Mountain,Unnamed,,52.57,157.02,1894.6748874243165,,,,,,,Volcanoes
Mountain,Chagulak,,52.577,-171.13,1484.2886410998535,,,,,,,Volcanoes
Mountain,Tolmachev Dol,,52.63,157.58,2443.0481498510744,,,,,,,Volcanoes
Mountain,Yunaska,,52.639,-170.632,1592.2569924597167,,,,,,,Volcanoes
Mountain,Vilyuchinsky,,52.7,158.28,5910.469704877931,,,,,,,Volcanoes
Mountain,Jom-Bolok,,52.713,99.021,6355.453254042969,,,,,,,Volcanoes
Mountain,Herbert,,52.742,-170.111,3931.8668692529313,,,,,,,Volcanoes
Mountain,Barkhatnaya Sopka,,52.802,158.24,2799.8649311669924,,,,,,,Volcanoes
Mountain,Cleveland,,52.825,-169.944,5415.336802,,,,,,,Volcanoes
Mountain,Tana,,52.83,-169.77,2894.391129968262,,,,,,,Volcanoes
Mountain,Unnamed,,52.88,158.3,812.8048313348388,,,,,,,Volcanoes
Mountain,Carlisle,,52.894,-170.054,4410.536699433594,,,,,,,Volcanoes
Mountain,Bolshe-Bannaya,,52.9,157.78,2451.7072125512695,,,,,,,Volcanoes
Mountain,Unnamed,,52.92,158.52,288.7576738781738,,,,,,,Volcanoes
Mountain,Nazko,,52.928,-123.732,4011.867782,,,,,,,Volcanoes
Mountain,Kagamil,,52.974,-169.72,2569.007455126953,,,,,,,Volcanoes
Mountain,Uliaga,,53.065,-169.77,2679.8343264453124,,,,,,,Volcanoes
Mountain,Vsevidof,,53.13,-168.693,6089.026778623047,,,,,,,Volcanoes
Mountain,Recheschnoi,,53.157,-168.539,5968.330954755859,,,,,,,Volcanoes
Mountain,Avachinsky,,53.256,158.836,8902.044305791016,,,,,,,Volcanoes
Mountain,Koryaksky,,53.321,158.712,11221.320243535156,,,,,,,Volcanoes
Mountain,Okmok,,53.43,-168.13,1196.3833167980956,,,,,,,Volcanoes
Mountain,Zhupanovsky,,53.589,159.15,9504.470128,,,,,,,Volcanoes
Mountain,Dzenzursky,,53.637,158.922,6523.865435449219,,,,,,,Volcanoes
Mountain,Vitim Volcanic Field,,53.75,113.25,3294.6930585449218,,,,,,,Volcanoes
Mountain,Veer,,53.753,158.448,1928.9520961035157,,,,,,,Volcanoes
Mountain,Kostakan,,53.833,158.052,2783.8560179199217,,,,,,,Volcanoes
Mountain,Makushin,,53.891,-166.923,5350.128104736328,,,,,,,Volcanoes
Mountain,Bakening,,53.905,158.07,7299.741643173828,,,,,,,Volcanoes
Mountain,Zavaritsky,,53.905,158.385,4816.752510317381,,,,,,,Volcanoes
Mountain,Bogoslof,,53.93,-168.03,9.387982160758972,,,,,,,Volcanoes
Mountain,Akademia Nauk,,53.98,159.45,2020.99744,,,,,,,Volcanoes
Mountain,Karymsky,,54.049,159.443,4925.932954238281,,,,,,,Volcanoes
Mountain,Akutan,,54.134,-165.986,4018.258050659181,,,,,,,Volcanoes
Mountain,Maly Semyachik,,54.135,159.674,5014.220871269531,,,,,,,Volcanoes
Mountain,Bolshoi Semiachik,,54.32,160.02,5286.600677573244,,,,,,,Volcanoes
Mountain,Kikhpinych,,54.489,160.251,4882.567153940431,,,,,,,Volcanoes
Mountain,Uzon,,54.489,159.974,2173.945178615723,,,,,,,Volcanoes
Mountain,Westdahl,,54.516,-164.65,5119.9122187451185,,,,,,,Volcanoes
Mountain,Taunshits,,54.528,159.804,7538.916961738281,,,,,,,Volcanoes
Mountain,Krasheninnikov,,54.596,160.27,5940.437006372069,,,,,,,Volcanoes
Mountain,Fisher,,54.65,-164.43,563.2051763,,,,,,,Volcanoes
Mountain,Crow Lagoon,,54.7,-130.23,416.5380216,,,,,,,Volcanoes
Mountain,Kronotsky,,54.753,160.533,11424.416734921875,,,,,,,Volcanoes
Mountain,Shishaldin,,54.756,-163.97,9090.019777,,,,,,,Volcanoes
Mountain,Khangar,,54.761,157.407,6416.1243639599625,,,,,,,Volcanoes
Mountain,Isanotski,,54.765,-163.723,7275.549453105468,,,,,,,Volcanoes
Mountain,Roundtop,,54.8,-163.589,6016.018877280275,,,,,,,Volcanoes
Mountain,Schmidt,,54.92,160.63,4939.940603144531,,,,,,,Volcanoes
Mountain,Gamchen,,54.974,160.703,8306.028777060546,,,,,,,Volcanoes
Mountain,Komarov,,55.033,160.725,6751.406427597656,,,,,,,Volcanoes
Mountain,Vysoky,,55.064,160.765,6958.0544923632815,,,,,,,Volcanoes
Mountain,Frosty,,55.067,-162.835,5673.485484414063,,,,,,,Volcanoes
Mountain,Tseax River Cone,,55.111,-128.899,1969.452768305664,,,,,,,Volcanoes
Mountain,Kizimen,,55.131,160.32,7629.200136,,,,,,,Volcanoes
Mountain,Dutton,,55.183,-162.276,4797.852436918944,,,,,,,Volcanoes
Mountain,Plosky,,55.2,158.47,3019.9457369018555,,,,,,,Volcanoes
Mountain,Tlevak Strait-Suemez Island,,55.25,-133.3,932.3106398,,,,,,,Volcanoes
Mountain,Behm Canal-Rudyerd Bay,,55.35,-131,-236.4261082,,,,,,,Volcanoes
Mountain,Emmons Lake Volcanic Center,,55.352,-162.045,2763.037382019043,,,,,,,Volcanoes
Mountain,Pavlof,,55.417,-161.894,8168.299177939453,,,,,,,Volcanoes
Mountain,Amak,,55.418,-163.147,1790.7346963085938,,,,,,,Volcanoes
Mountain,Piip,,55.42,167.33,-6861.096699,,,,,,,Volcanoes
Mountain,Akhtang,,55.43,158.65,5465.076050712891,,,,,,,Volcanoes
Mountain,Pavlof Sister,,55.457,-161.854,6942.0603973632815,,,,,,,Volcanoes
Mountain,Cherpuk Group,,55.55,157.47,5236.79735,,,,,,,Volcanoes
Mountain,Kozyrevsky,,55.58,158.38,5341.4209828564435,,,,,,,Volcanoes
Mountain,Dana,,55.641,-161.214,4149.518884194337,,,,,,,Volcanoes
Mountain,Romanovka,,55.65,158.8,3928.5359676074218,,,,,,,Volcanoes
Mountain,Ichinsky,,55.678,157.718,11798.184990146485,,,,,,,Volcanoes
Mountain,Udina,,55.758,160.527,9428.157757666015,,,,,,,Volcanoes
Mountain,Maly Payalpan,,55.82,157.98,5539.053145512694,,,,,,,Volcanoes
Mountain,Tolbachik,,55.832,160.326,11873.93667015625,,,,,,,Volcanoes
Mountain,Zimina,,55.862,160.603,9844.485620449219,,,,,,,Volcanoes
Mountain,Bolshoi Payalpan,,55.88,157.78,5752.753093911131,,,,,,,Volcanoes
Mountain,Stepovak Bay 2,,55.913,-160.041,4233.918813588869,,,,,,,Volcanoes
Mountain,Stepovak Bay Group,,55.917,-160.017,2886.327400356445,,,,,,,Volcanoes
Mountain,Unnamed,,55.92,161.75,1104.6831980090333,,,,,,,Volcanoes
Mountain,Stepovak Bay 3,,55.929,-160.002,4510.448129565431,,,,,,,Volcanoes
Mountain,Stepovak Bay 4,,55.954,-159.954,4702.6019462304685,,,,,,,Volcanoes
Mountain,Bezymianny,,55.972,160.595,9467.106518857421,,,,,,,Volcanoes
Mountain,Kupreanof,,56.011,-159.797,5217.9881887060565,,,,,,,Volcanoes
Mountain,Kamen,,56.02,160.593,14267.657078222655,,,,,,,Volcanoes
Mountain,Klyuchevskoy,,56.056,160.642,15553.345865058594,,,,,,,Volcanoes
Mountain,Uksichan,,56.08,158.38,4169.731774184569,,,,,,,Volcanoes
Mountain,Ushkovsky,,56.113,160.509,13208.179646230468,,,,,,,Volcanoes
Mountain,Veniaminof,,56.17,-159.38,5887.536264824219,,,,,,,Volcanoes
Mountain,Udokan Plateau,,56.28,117.77,5107.265045117188,,,,,,,Volcanoes
Mountain,Anaun,,56.32,158.83,3730.344316000975,,,,,,,Volcanoes
Mountain,Geodesistoy,,56.33,158.67,3296.792243464356,,,,,,,Volcanoes
Mountain,Krainy,,56.37,159.03,4748.800434677734,,,,,,,Volcanoes
Mountain,Kulkev,,56.37,158.37,2598.9166851123045,,,,,,,Volcanoes
Mountain,Kekurny,,56.4,158.85,4014.1978509619125,,,,,,,Volcanoes
Mountain,Bolshoi-Kekuknaysky,,56.483,157.917,3518.591965859375,,,,,,,Volcanoes
Mountain,Duncan Canal,,56.5,-133.1,-14.55773722,,,,,,,Volcanoes
Mountain,Verkhovoy,,56.52,159.53,4114.481339243162,,,,,,,Volcanoes
Mountain,Black Peak,,56.552,-158.785,3039.3802684277343,,,,,,,Volcanoes
Mountain,Iskut-Unuk River Cones,,56.567,-130.75,1841.8163979052733,,,,,,,Volcanoes
Mountain,Eggella,,56.57,158.52,3137.4804682250974,,,,,,,Volcanoes
Mountain,Sheveluch,,56.653,161.36,10295.762118701172,,,,,,,Volcanoes
Mountain,Alney-Chashakondzha,,56.656,159.647,5906.184428022462,,,,,,,Volcanoes
Mountain,Hoodoo Mountain,,56.78,-131.28,5610.315297153319,,,,,,,Volcanoes
Mountain,Cherny,,56.82,159.67,5233.543343198244,,,,,,,Volcanoes
Mountain,Unnamed,,56.82,158.95,2865.788909423828,,,,,,,Volcanoes
Mountain,Pogranychny,,56.85,159.8,4360.395355786131,,,,,,,Volcanoes
Mountain,Aniakchak,,56.88,-158.17,2316.1931416137695,,,,,,,Volcanoes
Mountain,Zaozerny,,56.88,159.95,3905.097505673828,,,,,,,Volcanoes
Mountain,Bliznets,,56.97,159.78,3153.0184015112304,,,,,,,Volcanoes
Mountain,Yantarni,,57.019,-157.185,4045.6762131640626,,,,,,,Volcanoes
Mountain,Edgecumbe,,57.05,-135.75,2776.6701693237305,,,,,,,Volcanoes
Mountain,Kebeney,,57.1,159.93,4389.699841,,,,,,,Volcanoes
Mountain,Fedotych,,57.13,160.4,3110.471609733887,,,,,,,Volcanoes
Mountain,Chiginagak,,57.135,-156.99,6609.744386098631,,,,,,,Volcanoes
Mountain,Shisheika,,57.153,161.09,1155.9956837915038,,,,,,,Volcanoes
Mountain,St. Paul Island,,57.167,-170.213,31.068247815589906,,,,,,,Volcanoes
Mountain,Terpuk,,57.2,159.83,2078.5517118676757,,,,,,,Volcanoes
Mountain,Kialagvik,,57.203,-156.745,4941.700770600587,,,,,,,Volcanoes
Mountain,Leutongey,,57.306,159.827,4317.402014130859,,,,,,,Volcanoes
Mountain,Sedanka Lava Field,,57.317,160.067,3727.928541,,,,,,,Volcanoes
Mountain,Tuzovsky,,57.32,159.967,4946.155055571287,,,,,,,Volcanoes
Mountain,Gorny Institute,,57.33,160.2,6773.896522,,,,,,,Volcanoes
Mountain,Bliznetsy,,57.35,161.37,560.1982235888672,,,,,,,Volcanoes
Mountain,Kinenin,,57.35,160.97,1820.4098380395508,,,,,,,Volcanoes
Mountain,Titila,,57.406,160.108,4982.143371293943,,,,,,,Volcanoes
Mountain,Spectrum Range,,57.43,-130.68,7044.546598046875,,,,,,,Volcanoes
Mountain,Shishel,,57.45,160.37,5227.427812583006,,,,,,,Volcanoes
Mountain,Mezhdusopochny,,57.47,160.25,5052.451948710937,,,,,,,Volcanoes
Mountain,Elovsky,,57.55,160.53,3667.6647328662125,,,,,,,Volcanoes
Mountain,Alngey,,57.702,160.418,5944.302966884766,,,,,,,Volcanoes
Mountain,Uka,,57.706,160.59,5263.241112792969,,,,,,,Volcanoes
Mountain,Edziza,,57.72,-130.63,8723.441175332031,,,,,,,Volcanoes
Mountain,Ugashik-Peulik,,57.751,-156.368,4578.690562749025,,,,,,,Volcanoes
Mountain,Kaileney,,57.8,160.67,5159.247856333006,,,,,,,Volcanoes
Mountain,Plosky,,57.83,160.25,3786.028085,,,,,,,Volcanoes
Mountain,Ukinrek Maars,,57.834,-156.52,230.2733567602539,,,,,,,Volcanoes
Mountain,Unnamed,,57.87,-155.411,1311.6395423876952,,,,,,,Volcanoes
Mountain,Bely,,57.88,160.53,5943.3566015380875,,,,,,,Volcanoes
Mountain,Nylgimelkin,,57.97,160.65,4956.646374497069,,,,,,,Volcanoes
Mountain,Snezhniy,,58.02,160.8,6951.163606982422,,,,,,,Volcanoes
Mountain,Iktunup,,58.08,160.77,5872.800919838869,,,,,,,Volcanoes
Mountain,Spokoiny,,58.13,160.82,6017.287239130859,,,,,,,Volcanoes
Mountain,Martin,,58.172,-155.361,5135.605142885744,,,,,,,Volcanoes
Mountain,Ostry,,58.18,160.82,7287.262276181641,,,,,,,Volcanoes
Mountain,Mageik,,58.195,-155.253,7086.272378837891,,,,,,,Volcanoes
Mountain,Snegovoy,,58.2,160.97,6714.879048076172,,,,,,,Volcanoes
Mountain,Trident,,58.236,-155.1,5491.048432895506,,,,,,,Volcanoes
Mountain,Novarupta,,58.266,-155.159,2723.7528073095705,,,,,,,Volcanoes
Mountain,Katmai,,58.279,-154.953,6611.128490473631,,,,,,,Volcanoes
Mountain,Severny,,58.28,160.87,6198.439509,,,,,,,Volcanoes
Mountain,Snowy Mountain,,58.336,-154.682,6309.442196396484,,,,,,,Volcanoes
Mountain,Griggs,,58.354,-155.092,7625.614119921875,,,,,,,Volcanoes
Mountain,Voyampolsky,,58.374,160.631,3609.628066982422,,,,,,,Volcanoes
Mountain,Iettunup,,58.4,161.08,3473.5869470410157,,,,,,,Volcanoes
Mountain,Denison,,58.418,-154.449,7332.557252050781,,,,,,,Volcanoes
Mountain,Level Mountain,,58.42,-131.35,5856.8300534423815,,,,,,,Volcanoes
Mountain,Steller,,58.43,-154.39,7456.9744583984375,,,,,,,Volcanoes
Mountain,Kukak,,58.453,-154.355,6447.496595473632,,,,,,,Volcanoes
Mountain,Heart Peaks,,58.6,-131.97,6041.742553208006,,,,,,,Volcanoes
Mountain,Kaguyak,,58.611,-154.025,2912.592743288574,,,,,,,Volcanoes
Mountain,Fourpeaked,,58.77,-153.672,6700.200973613281,,,,,,,Volcanoes
Mountain,Douglas,,58.855,-153.542,6525.641222138672,,,,,,,Volcanoes
Mountain,Augustine,,59.363,-153.435,3682.042437456056,,,,,,,Volcanoes
Mountain,Tuya Volcanic Field,,59.37,-130.58,4511.155,,,,,,,Volcanoes
Mountain,Atlin Volcanic Field,,59.708,-133.358,4382.4252832617185,,,,,,,Volcanoes
Mountain,Iliamna,,60.032,-153.09,9945.174408,,,,,,,Volcanoes
Mountain,Alligator Lake,,60.42,-135.42,5798.267940527344,,,,,,,Volcanoes
Mountain,Redoubt,,60.485,-152.742,10039.747664560547,,,,,,,Volcanoes
Mountain,Spurr,,61.299,-152.251,10649.626664658203,,,,,,,Volcanoes
Mountain,Churchill,,61.38,-141.75,15483.858699121094,,,,,,,Volcanoes
Mountain,Ingakslugwat Hills,,61.43,-164.47,19.68504,,,,,,,Volcanoes
Mountain,Hayes,,61.64,-152.411,9753.500782451172,,,,,,,Volcanoes
Mountain,Wrangell,,62.006,-144.017,14098.432696679687,,,,,,,Volcanoes
Mountain,Gordon,,62.13,-143.08,8625.844996,,,,,,,Volcanoes
Mountain,Sanford,,62.22,-144.13,15976.035962246093,,,,,,,Volcanoes
Mountain,Thordarhyrna,,62.27,-17.6,-6564.946422,,,,,,,Volcanoes
Mountain,Fort Selkirk,,62.93,-137.38,3356.9204848974623,,,,,,,Volcanoes
Mountain,Vestmannaeyjar,,63.416,-20.266,0,,,,,,,Volcanoes
Mountain,St. Michael,,63.45,-162.12,100.07885504753112,,,,,,,Volcanoes
Mountain,Kookooligit Mountains,,63.6,-170.43,1600.5085533654785,,,,,,,Volcanoes
Mountain,Eyjafjallajokull,,63.633,-19.633,4954.619879086913,,,,,,,Volcanoes
Mountain,Katla,,63.633,-19.083,4218.8522607568375,,,,,,,Volcanoes
