Type,Name,Ident,Latitude,Longitude,Elevation,Magnetic Declination,Tags,Description,Region,Visible From,Last Edit,Import Filename
Airport,Gisborne Airport,NZGS,-38.6618967,177.9821315,16.4042,,,World Update 12 New Zealand,,,,
Airport,Gorge River Airstrip,NZQE,-44.1846798,168.192489,9.288640301,,,World Update 12 New Zealand,,,,
Airport,Lake Tekapo Airport,NZTL,-44.0024103,170.4414977,2493.4384,,,World Update 12 New Zealand,,,,
Airport,Martins Bay Aerodrome,NZMJ,-44.3685689,168.0147383,0,,,World Update 12 New Zealand,,,,
Airport,Milford Sound Airport,NZMF,-44.6736719,167.9241865,8.442593016,,,World Update 12 New Zealand,,,,
Airport,Quintin Lodge,T004,-44.7915056,167.7528727,809.9218813,,,World Update 12 New Zealand,,,,
Airport,Rotorua Regional Airport,NZRO,-38.1085239,176.3157475,935.0394,,,World Update 12 New Zealand,,,,
Airport,Westport-Carters Beach Airport,NZWS,-41.7387998,171.5772851,6.56168,,,World Update 12 New Zealand,,,,
Airport,Whangarei Airport,NZWR,-35.769687,174.3632507,111.54856,,,World Update 12 New Zealand,,,,
Building,Akaroa Dolphins Cruise,,-43.8097,172.953214,0,,,World Update 12 New Zealand,,,,
Building,Akaroa St Patrick's Catholic Church,,-43.802669,172.970031,49.23721469,,,World Update 12 New Zealand,,,,
Building,Akaroa Waterfront,,-43.809044,172.960175,0,,,World Update 12 New Zealand,,,,
Building,Auckland Harbour Bridge,,-36.829319,174.746453,0,,,World Update 12 New Zealand,,,,
Building,Auckland War Memorial Museum,,-36.860272,174.777808,200.13124,,,World Update 12 New Zealand,,,,
Building,Balclutha Road Bridge,,-46.235558,169.745044,6.70319645,,,World Update 12 New Zealand,,,,
Building,Beehive,,-41.278444,174.776608,42.65092,,,World Update 12 New Zealand,,,,
Building,Big Lemon and Paeroa Bottle,,-37.383192,175.674333,91.60075894,,,World Update 12 New Zealand,,,,
Building,ChristChurch Cathedral,,-43.530936,172.637219,13.12336,,,World Update 12 New Zealand,,,,
Building,Church of the Good Shepherd,,-44.003328,170.482408,2316.269235,,,World Update 12 New Zealand,,,,
Building,Cromwell Big Fruit Sculpture,,-45.035511,169.197297,675.85304,,,World Update 12 New Zealand,,,,
Building,Dunedin Law Courts,,-45.875481,170.507417,11.83697205,,,World Update 12 New Zealand,,,,
Building,Dunedin Railway Station,,-45.875381,170.508833,0,,,World Update 12 New Zealand,,,,
Building,Durie Hill Memorial Tower,,-39.936939,175.061531,265.74804,,,World Update 12 New Zealand,,,,
Building,Edith Cavell Bridge,,-44.988258,168.671942,1175.46676,,,World Update 12 New Zealand,,,,
Building,First Church Of Otago,,-45.876011,170.504717,62.39325555,,,World Update 12 New Zealand,,,,
Building,Fo Guang Shan Temple,,-36.957203,174.911217,75.45932,,,World Update 12 New Zealand,,,,
Building,Forsyth Barr Stadium,,-45.869453,170.524428,0,,,World Update 12 New Zealand,,,,
Building,Hobbiton Movie Set,,-37.858058,175.680892,472.9901363,,,World Update 12 New Zealand,,,,
Building,Hopwood Clock Tower,,-40.356469,175.611317,114.8294,,,World Update 12 New Zealand,,,,
Building,Huntly Power Station,,-37.544411,175.149806,65.09564575,,,World Update 12 New Zealand,,,,
Building,Invercargill Water Tower,,-46.4075,168.360744,141.07612,,,World Update 12 New Zealand,,,,
Building,Kawarau Gorge Suspension Bridge,,-45.008933,168.900067,992.8044314,,,World Update 12 New Zealand,,,,
Building,Kerikeri Mission Station,,-35.217572,173.962442,19.49859166,,,World Update 12 New Zealand,,,,
Building,Lake Wakatipu,,-45.051556,168.638069,807.08664,,,World Update 12 New Zealand,,,,
Building,Larnach Castle,,-45.861619,170.627244,984.6165489,,,World Update 12 New Zealand,,,,
Building,Majestic Centre,,-41.288483,174.774656,29.52756,,,World Update 12 New Zealand,,,,
Building,Mohaka Viaduct,,-39.068511,177.125853,88.58268,,,World Update 12 New Zealand,,,,
Building,Mount Cargill Transmitter,,-45.813178,170.555286,2185.551671,,,World Update 12 New Zealand,,,,
Building,Mount John Observatory,,-43.985244,170.464092,3352.542694,,,World Update 12 New Zealand,,,,
Building,Mount Kaukau Transmitter,,-41.233508,174.779369,1379.208847,,,World Update 12 New Zealand,,,,
Building,Museum of New Zealand Te Papa Tongarewa,,-41.290358,174.782058,3.28084,,,World Update 12 New Zealand,,,,
Building,New Zealand Parliament House,,-41.277744,174.776319,50.60905083,,,World Update 12 New Zealand,,,,
Building,New Zealand Parliamentary Library,,-41.277192,174.776417,61.86648815,,,World Update 12 New Zealand,,,,
Building,North Harbour Stadium,,-36.726906,174.701494,95.01524476,,,World Update 12 New Zealand,,,,
Building,Ohaaki Power Station,,-38.528661,176.293061,1144.969706,,,World Update 12 New Zealand,,,,
Building,Ohakune Carrot,,-39.420061,175.403694,1932.41476,,,World Update 12 New Zealand,,,,
Building,Otira Viaduct,,-42.885992,171.555619,2402.911726,,,World Update 12 New Zealand,,,,
Building,Rakaia Bridges,,-43.743642,172.037736,341.20736,,,World Update 12 New Zealand,,,,
Building,Rugby League Park,,-43.543781,172.603922,32.8084,,,World Update 12 New Zealand,,,,
Building,Sky Stadium,,-41.27279904,174.7859275,9.84252,,,World Update 12 New Zealand,,,,
Building,Sky Tower,,-36.848456,174.762181,78.74016,,,World Update 12 New Zealand,,,,
Building,Skyline Queenstown,,-45.026625,168.649289,2524.781195,,,World Update 12 New Zealand,,,,
Building,Sugarloaf Transmitter,,-43.603514,172.649436,1637.810286,,,World Update 12 New Zealand,,,,
Building,Taramakau Road-Rail Bridge,,-42.561386,171.144906,52.49344,,,World Update 12 New Zealand,,,,
Building,Tekapo A Power Station,,-44.013817,170.460397,2230.527454,,,World Update 12 New Zealand,,,,
Building,Titahi Bay Transmitter,,-41.096,174.842925,207.6070081,,,World Update 12 New Zealand,,,,
Building,Tiwai Point Aluminium Smelter,,-46.588347,168.380725,6.56168,,,World Update 12 New Zealand,,,,
Building,Waitangi Treaty Grounds,,-35.265672,174.082733,72.17848,,,World Update 12 New Zealand,,,,
Building,Wellington Regional Stadium and Railway Station,,-41.276706,174.783281,21.67492001,,,World Update 12 New Zealand,,,,
Landform,Cardrona Alpine Resort,,-44.873506,168.949319,5431.191526,,,World Update 12 New Zealand,,,,
Landform,Coronet Peak Ski Area,,-44.927033,168.736289,3892.016998,,,World Update 12 New Zealand,,,,
Landform,Farewell Spit Lighthouse,,-40.546097,173.009381,21.15893307,,,World Update 12 New Zealand,,,,
Landform,Hole in the Rock - Piercy Island,,-35.165828,174.339083,212.6359382,,,World Update 12 New Zealand,,,,
Landform,The Remarkables Ski Area,,-45.053422,168.813992,5253.21757,,,World Update 12 New Zealand,,,,
Lighthouse,Cape Egmont Lighthouse,,-39.276283,173.754981,47.65397134,,,World Update 12 New Zealand,,,,
Lighthouse,Cape Reinga Lighthouse,,-34.426717,172.677642,484.694599,,,World Update 12 New Zealand,,,,
Lighthouse,Castle Point Lighthouse,,-40.90045,176.231419,85.91279858,,,World Update 12 New Zealand,,,,
Lighthouse,Dog Island lighthouse,,-46.651872,168.410458,0,,,World Update 12 New Zealand,,,,
Lighthouse,Taiaroa Head Lighthouse,,-45.773764,170.728853,0,,,World Update 12 New Zealand,,,,
Lighthouse,Tiritiri Matangi Lighthouse,,-36.605594,174.897386,179.9751199,,,World Update 12 New Zealand,,,,
Settlement,Auckland,,-36.8508827,174.7644881,55.77428,,,World Update 12 New Zealand,,,,
Settlement,Christchurch,,-43.5320214,172.6305589,13.12336,,,World Update 12 New Zealand,,,,
Settlement,Nelson,,-41.2985321,173.2443635,62.33596,,,World Update 12 New Zealand,,,,
Settlement,Queenstown,,-45.0301511,168.6615141,1023.62208,,,World Update 12 New Zealand,,,,
Settlement,Tauranga,,-37.6869653,176.1654272,6.56168,,,World Update 12 New Zealand,,,,
Settlement,Wellington,,-41.2923814,174.7787463,9.84252,,,World Update 12 New Zealand,,,,
