Type,Name,Ident,Latitude,Longitude,Elevation,Magnetic Declination,Tags,Description,Region,Visible From,Last Edit,Import Filename
Airport,Karlovy Vary Airport,LKKV,50.2033347,12.9142028,1975.848244,,,World Update 14 Central Eastern Europe,,,,
Airport,Pecs-Pogany Airport,LHPP,45.9890722,18.2421542,634.5334093,,,World Update 14 Central Eastern Europe,,,,
Airport,Poprad-Tatry Airport,LZTT,49.072775,20.2416742,2304.144906,,,World Update 14 Central Eastern Europe,,,,
Airport,Prijedor Urije Airport,LQPD,44.9930942,16.7353558,546.6328193,,,World Update 14 Central Eastern Europe,,,,
Airport,Rijeka International Airport,LDRI,45.2163522,14.5710081,269.4701984,,,World Update 14 Central Eastern Europe,,,,
Airport,Zagorje ob Savi Airport,LJZA,46.1427775,14.9989244,1085.922296,,,World Update 14 Central Eastern Europe,,,,
Building,Avaz Twist Tower,,43.860775,18.401836,1789.49517,,,World Update 14 Central Eastern Europe,,,,
Building,Baščaršija,,43.860044,18.4313,1804.404329,,,World Update 14 Central Eastern Europe,,,,
Building,Betliar Manor House,,48.7063,20.510353,1169.604542,,,World Update 14 Central Eastern Europe,,,,
Building,Bled Castle,,46.369736,14.100261,1829.841252,,,World Update 14 Central Eastern Europe,,,,
Building,Bojnice Castle,,48.779961,18.577789,1014.032071,,,World Update 14 Central Eastern Europe,,,,
Building,Bouzov Castle,,49.705039,16.889481,1381.699914,,,World Update 14 Central Eastern Europe,,,,
Building,Bratislava Castle,,48.142353,17.100128,669.5836199,,,World Update 14 Central Eastern Europe,,,,
Building,Brčko City Hall,,44.878153,18.809675,304.8068117,,,World Update 14 Central Eastern Europe,,,,
Building,Brdo Castle,,46.273094,14.377083,1361.5486,,,World Update 14 Central Eastern Europe,,,,
Building,Brod Fortress,,45.156447,18.007019,288.001743,,,World Update 14 Central Eastern Europe,,,,
Building,Čachtice Castle,,48.725069,17.761119,1196.950215,,,World Update 14 Central Eastern Europe,,,,
Building,Cairn of Milan Rastislav Štefánik,,48.679381,17.563764,1710.658691,,,World Update 14 Central Eastern Europe,,,,
Building,Calvary Banská Štiavnica,,48.461803,18.913678,2269.731129,,,World Update 14 Central Eastern Europe,,,,
Building,Castle of Siklós,,45.852322,18.295739,396.5671546,,,World Update 14 Central Eastern Europe,,,,
Building,Castle Sevnica,,46.007992,15.31405,787.8274744,,,World Update 14 Central Eastern Europe,,,,
Building,Church of Assumption of our Lady and St John the Baptist,,49.959828,15.290361,714.1992092,,,World Update 14 Central Eastern Europe,,,,
Building,Church of St. Nicholas,,44.230858,15.178525,3.436614632,,,World Update 14 Central Eastern Europe,,,,
Building,Church of the Assumption,,46.362389,14.0902,1559.593871,,,World Update 14 Central Eastern Europe,,,,
Building,Clock Tower,,43.864139,18.428122,1940.654306,,,World Update 14 Central Eastern Europe,,,,
Building,Diana Observation Tower,,50.218747,12.871592,1808.377221,,,World Update 14 Central Eastern Europe,,,,
Building,Dubovac Castle,,45.495178,15.527989,548.7638934,,,World Update 14 Central Eastern Europe,,,,
Building,Esztergom Basilica,,47.799203,18.7366,493.3994681,,,World Update 14 Central Eastern Europe,,,,
Building,Fortress Kamerlengo,,43.515236,16.247164,2.786094055,,,World Update 14 Central Eastern Europe,,,,
Building,Füzér Castle,,48.541753,21.459344,1641.606561,,,World Update 14 Central Eastern Europe,,,,
Building,Gallery 11/07/95,,43.865036,18.425717,1900.168652,,,World Update 14 Central Eastern Europe,,,,
Building,Gazi Husrev-beg Mosque,,43.864747,18.428433,1957.652638,,,World Update 14 Central Eastern Europe,,,,
Building,Hamze Hume,,43.85595,18.413169,1752.190633,,,World Update 14 Central Eastern Europe,,,,
Building,Hercegovačka Gračanica,,42.710706,18.359881,1286.543439,,,World Update 14 Central Eastern Europe,,,,
Building,Hluboká Castle,,49.051261,14.441422,1394.806453,,,World Update 14 Central Eastern Europe,,,,
Building,Hungarian Parliament Building,,47.507111,19.045642,345.1299152,,,World Update 14 Central Eastern Europe,,,,
Building,Ještěd Television Tower,,50.732669,14.984614,3217.893088,,,World Update 14 Central Eastern Europe,,,,
Building,Kamzík Tower,,48.182408,17.094428,1410.319156,,,World Update 14 Central Eastern Europe,,,,
Building,Karlštejn Castle,,49.939439,14.188061,896.6134826,,,World Update 14 Central Eastern Europe,,,,
Building,KékestetőTV Tower,,47.872719,20.009144,3358.635597,,,World Update 14 Central Eastern Europe,,,,
Building,Knin Fortress,,44.034031,16.193489,972.0183356,,,World Update 14 Central Eastern Europe,,,,
Building,Konopiště Castle,,49.779589,14.656611,1182.833231,,,World Update 14 Central Eastern Europe,,,,
Building,Kost Castle,,50.490331,15.13515,914.384766,,,World Update 14 Central Eastern Europe,,,,
Building,Kostel Castle,,45.508839,14.910417,1216.264498,,,World Update 14 Central Eastern Europe,,,,
Building,Kozara Memorial Monument,,45.013867,16.909081,2648.833953,,,World Update 14 Central Eastern Europe,,,,
Building,Krásna Hôrka Castle,,48.658261,20.600503,1564.072987,,,World Update 14 Central Eastern Europe,,,,
Building,Krk Bridge,,45.247564,14.570928,0,,,World Update 14 Central Eastern Europe,,,,
Building,Krka Bridge,,43.808617,15.915675,18.92356639,,,World Update 14 Central Eastern Europe,,,,
Building,Kroměříž Gardens,,49.297122,17.380822,680.8601057,,,World Update 14 Central Eastern Europe,,,,
Building,Kunětická Hora Castle,,50.080233,15.811606,907.4507275,,,World Update 14 Central Eastern Europe,,,,
Building,Latin Bridge,,43.857642,18.428931,1780.053544,,,World Update 14 Central Eastern Europe,,,,
Building,Lednice Castle,,48.801206,16.805256,562.5296945,,,World Update 14 Central Eastern Europe,,,,
Building,Limska Draga Viaduct,,45.120906,13.800736,328.8999047,,,World Update 14 Central Eastern Europe,,,,
Building,Litomyšl Castle,,49.873114,16.313336,1164.322738,,,World Update 14 Central Eastern Europe,,,,
Building,Loket Castle,,50.186931,12.754419,1347.4994,,,World Update 14 Central Eastern Europe,,,,
Building,Lomnický Peak Observatory,,49.195183,20.213206,8511.736484,,,World Update 14 Central Eastern Europe,,,,
Building,Maksimir Stadium,,45.818658,16.017958,392.3930146,,,World Update 14 Central Eastern Europe,,,,
Building,Maslenica bridge,,44.224828,15.531222,11.39210706,,,World Update 14 Central Eastern Europe,,,,
Building,Mehmed Paša Sokolović Bridge,,43.782264,19.288008,952.8460269,,,World Update 14 Central Eastern Europe,,,,
Building,Memorial Park Garavice,,44.822231,15.840219,762.5923,,,World Update 14 Central Eastern Europe,,,,
Building,Miska Huszar Statue,,47.217047,18.553861,364.1123901,,,World Update 14 Central Eastern Europe,,,,
Building,Monostori Bridge,,47.7573,18.084667,337.92652,,,World Update 14 Central Eastern Europe,,,,
Building,Mosque of Pasha Gazi Kassim,,46.077086,18.227925,528.6774592,,,World Update 14 Central Eastern Europe,,,,
Building,Mostar Old Bridge,,43.337242,17.815036,164.6904735,,,World Update 14 Central Eastern Europe,,,,
Building,Mount Križevac,,43.175619,17.668139,1406.525484,,,World Update 14 Central Eastern Europe,,,,
Building,Museum of Crimes Against Humanity,,43.864619,18.427778,1949.669808,,,World Update 14 Central Eastern Europe,,,,
Building,National Museum of Bosnia and Herzegovina,,43.860011,18.402681,1857.436432,,,World Update 14 Central Eastern Europe,,,,
Building,Nehaj Fortress,,44.986544,14.903461,162.8013473,,,World Update 14 Central Eastern Europe,,,,
Building,Orava Castle,,49.2623,19.358861,1761.884971,,,World Update 14 Central Eastern Europe,,,,
Building,ORFK Tower,,47.550144,19.001497,1437.996838,,,World Update 14 Central Eastern Europe,,,,
Building,Otočec Castle,,45.837975,15.234783,510.3615051,,,World Update 14 Central Eastern Europe,,,,
Building,Pannonhalma Archabbey,,47.552664,17.761139,883.1198667,,,World Update 14 Central Eastern Europe,,,,
Building,Pécs Cathedral,,46.078681,18.223553,572.7497795,,,World Update 14 Central Eastern Europe,,,,
Building,Pilgrimage Church of Saint John of Nepomuk,,49.580156,15.941992,2018.669173,,,World Update 14 Central Eastern Europe,,,,
Building,Predjama Castle,,45.8156,14.127386,1730.782271,,,World Update 14 Central Eastern Europe,,,,
Building,Průhonice Castle,,50.000444,14.557589,976.5034585,,,World Update 14 Central Eastern Europe,,,,
Building,Rajhenburg Castle,,45.989036,15.466656,732.5063524,,,World Update 14 Central Eastern Europe,,,,
Building,Reformed Great Church of Debrecen,,47.532272,21.624228,397.8733881,,,World Update 14 Central Eastern Europe,,,,
Building,Rihemberk Castle,,45.851142,13.791503,563.6015644,,,World Update 14 Central Eastern Europe,,,,
Building,Rječina Bridge,,45.334675,14.457169,210.9516392,,,World Update 14 Central Eastern Europe,,,,
Building,Sarajevo City Hall,,43.864442,18.43365,1935.823357,,,World Update 14 Central Eastern Europe,,,,
Building,Sarajevo Meeting of Cultures,,43.864372,18.427769,1946.032128,,,World Update 14 Central Eastern Europe,,,,
Building,Sarajevo Tunnel,,43.857086,18.428153,1784.902915,,,World Update 14 Central Eastern Europe,,,,
Building,Sebilj,,43.864933,18.430525,1940.004906,,,World Update 14 Central Eastern Europe,,,,
Building,Skadar Lake - Geese,,42.3409,19.209142,21.25736208,,,World Update 14 Central Eastern Europe,,,,
Building,Škofja Loka Castle,,46.1653,14.305161,1233.442651,,,World Update 14 Central Eastern Europe,,,,
Building,Sljeme Tower,,45.899508,15.948031,3375.915475,,,World Update 14 Central Eastern Europe,,,,
Building,Snežnik Castle,,45.682744,14.469178,1898.713661,,,World Update 14 Central Eastern Europe,,,,
Building,Socerb Castle,,45.589606,13.860844,1388.130232,,,World Update 14 Central Eastern Europe,,,,
Building,Solkan Bridge,,45.978772,13.65175,239.0578489,,,World Update 14 Central Eastern Europe,,,,
Building,Šomoška Castle,,48.171536,19.856594,1562.809831,,,World Update 14 Central Eastern Europe,,,,
Building,Spiš Castle,,49.00015,20.768128,1984.041132,,,World Update 14 Central Eastern Europe,,,,
Building,Srebrenik Fortress,,44.703436,18.531681,1414.167595,,,World Update 14 Central Eastern Europe,,,,
Building,St Barbara’s Cathedral,,49.944931,15.2635,867.0434704,,,World Update 14 Central Eastern Europe,,,,
Building,St Nicholas' Fortress,,43.72145,15.85465,16.30364806,,,World Update 14 Central Eastern Europe,,,,
Building,St. Mark's Church,,45.816389,15.973675,534.77692,,,World Update 14 Central Eastern Europe,,,,
Building,Star Village Mosor,,43.503794,16.614169,2224.245118,,,World Update 14 Central Eastern Europe,,,,
Building,Stolac Fortress,,43.080592,17.955583,395.4506047,,,World Update 14 Central Eastern Europe,,,,
Building,Strečno Castle,,49.174539,18.862356,1353.37093,,,World Update 14 Central Eastern Europe,,,,
Building,Sümeg Castle,,46.982103,17.282461,798.1237532,,,World Update 14 Central Eastern Europe,,,,
Building,Szigliget Castle,,46.804553,17.436369,675.0874473,,,World Update 14 Central Eastern Europe,,,,
Building,Tata Castle,,47.648764,18.319353,424.2688412,,,World Update 14 Central Eastern Europe,,,,
Building,Tehelné pole Stadium,,48.163247,17.136883,437.6687918,,,World Update 14 Central Eastern Europe,,,,
Building,The Hum Tower,,43.872431,18.386533,2677.04349,,,World Update 14 Central Eastern Europe,,,,
Building,The Pécs TV Tower,,46.099114,18.22015,1726.807777,,,World Update 14 Central Eastern Europe,,,,
Building,The Počitelj Clock Tower,,43.134369,17.731719,137.1227894,,,World Update 14 Central Eastern Europe,,,,
Building,Tihany Abbey,,46.913806,17.889706,569.4698906,,,World Update 14 Central Eastern Europe,,,,
Building,Tivat - Seagulls,,42.437,18.623,0,,,World Update 14 Central Eastern Europe,,,,
Building,Tjentište War Memorial,,43.346131,18.6869,2042.846144,,,World Update 14 Central Eastern Europe,,,,
Building,Trosky State Castle,,50.51655,15.230853,1447.734629,,,World Update 14 Central Eastern Europe,,,,
Building,Trsat Castle,,45.332511,14.455481,379.9240855,,,World Update 14 Central Eastern Europe,,,,
Building,Ujudvar TV Tower,,46.562839,17.01865,1026.698268,,,World Update 14 Central Eastern Europe,,,,
Building,Veliki Tabor Castle,,46.154717,15.651475,1082.886658,,,World Update 14 Central Eastern Europe,,,,
Building,Viewpoint of Sarajevo,,43.866175,18.438853,2245.911998,,,World Update 14 Central Eastern Europe,,,,
Building,Visegrád Citadel,,47.793594,18.980456,1051.845534,,,World Update 14 Central Eastern Europe,,,,
Building,Votive Church of Szeged,,46.248919,20.149131,276.5711175,,,World Update 14 Central Eastern Europe,,,,
Building,Vukovar Water Tower,,45.343989,19.012272,335.3265684,,,World Update 14 Central Eastern Europe,,,,
Building,War Childhood Museum,,43.866069,18.427258,1981.087295,,,World Update 14 Central Eastern Europe,,,,
Building,Yellow Fortress,,43.86635,18.437614,2163.309282,,,World Update 14 Central Eastern Europe,,,,
Building,žužemberk Castle,,45.830225,14.929158,701.7134843,,,World Update 14 Central Eastern Europe,,,,
Landform,Hruboskalsko,,50.553981,15.179506,1099.534358,,,World Update 14 Central Eastern Europe,,,,
Lighthouse,Lighthouse of Porer,,44.757989,13.890761,0,,,World Update 14 Central Eastern Europe,,,,
Lighthouse,Palagruža Lighthouse,,42.392314,16.259264,109.6607228,,,World Update 14 Central Eastern Europe,,,,
Settlement,Banja Luka,,44.7720844,17.191765,530.9542628,,,World Update 14 Central Eastern Europe,,,,
Settlement,Brno,,49.2002211,16.6078411,713.4684093,,,World Update 14 Central Eastern Europe,,,,
Settlement,Budapest,,47.4978917,19.0401608,356.8596591,,,World Update 14 Central Eastern Europe,,,,
Settlement,Dubrovnik,,42.6502472,18.0924947,69.71758092,,,World Update 14 Central Eastern Europe,,,,
Settlement,Ljubljana,,46.0500267,14.5069289,973.0590171,,,World Update 14 Central Eastern Europe,,,,
Settlement,Maribor,,46.5576439,15.6455853,862.6423509,,,World Update 14 Central Eastern Europe,,,,
Settlement,Plzen,,49.7477831,13.3783489,1023.64651,,,World Update 14 Central Eastern Europe,,,,
Settlement,Prague,,50.0756194,14.4377511,811.9266499,,,World Update 14 Central Eastern Europe,,,,
Settlement,Sarajevo,,43.8519775,18.3866867,1725.956929,,,World Update 14 Central Eastern Europe,,,,
Settlement,Split,,43.5116383,16.4399658,52.84110561,,,World Update 14 Central Eastern Europe,,,,
