Type,Name,Ident,Latitude,Longitude,Elevation,Magnetic Declination,Tags,Description,Region,Visible From,Last Edit,Import Filename
Airport,Flughafen Luebeck LBC,,53.8051414,10.7014331,50.05993403,,,"World Update 6 - Germany, Austria & Switzerland",,,,
Airport,Klagenfurt Airport,,46.6500125,14.3248578,1473.309121,,,"World Update 6 - Germany, Austria & Switzerland",,,,
Airport,St. Gallen-Altenrhein Airport,,47.4858737,9.5600178,1317.766387,,,"World Update 6 - Germany, Austria & Switzerland",,,,
Airport,Stuttgart Airport,,48.6888123,9.1982161,1291.86339,,,"World Update 6 - Germany, Austria & Switzerland",,,,
Building,Aachener Cathedral,,50.774736,6.083881,567.1567423,,,"World Update 6 - Germany, Austria & Switzerland",,,,
Building,Abbey of Saint Gall,,47.423528,9.377494,2202.80812,,,"World Update 6 - Germany, Austria & Switzerland",,,,
Building,Allianz Arena,,48.218814,11.624647,1615.819507,,,"World Update 6 - Germany, Austria & Switzerland",,,,
Building,Autostadt,,52.432653,10.793564,201.1566026,,,"World Update 6 - Germany, Austria & Switzerland",,,,
Building,Bastei,,50.961736,14.072731,661.1429261,,,"World Update 6 - Germany, Austria & Switzerland",,,,
Building,Batiment des Forces Motrices,,46.204531,6.136564,1220.47248,,,"World Update 6 - Germany, Austria & Switzerland",,,,
Building,Bern Minster,,46.947236,7.451644,1749.667326,,,"World Update 6 - Germany, Austria & Switzerland",,,,
Building,Borussia-Park,,51.174619,6.385461,261.9780977,,,"World Update 6 - Germany, Austria & Switzerland",,,,
Building,Brandenburg Gate,,52.516289,13.377664,118.3461805,,,"World Update 6 - Germany, Austria & Switzerland",,,,
Building,Brunswick Monument,,46.208458,6.148961,1223.885383,,,"World Update 6 - Germany, Austria & Switzerland",,,,
Building,Castelgrande,,46.193017,9.021994,908.0965228,,,"World Update 6 - Germany, Austria & Switzerland",,,,
Building,Castello di Montebello,,46.191719,9.026297,991.5992473,,,"World Update 6 - Germany, Austria & Switzerland",,,,
Building,Castello di Sasso Corbaro,,46.188017,9.030033,1509.555054,,,"World Update 6 - Germany, Austria & Switzerland",,,,
Building,Chillon Castle,,46.414128,6.927583,1226.840622,,,"World Update 6 - Germany, Austria & Switzerland",,,,
Building,Cochem Castle,,50.142344,7.166975,482.4229017,,,"World Update 6 - Germany, Austria & Switzerland",,,,
Building,Deutsche Bank Park,,50.068689,8.645308,359.8347476,,,"World Update 6 - Germany, Austria & Switzerland",,,,
Building,Deutsches Eck,,50.364117,7.605608,221.6896619,,,"World Update 6 - Germany, Austria & Switzerland",,,,
Building,Drachenburg Castle,,50.668706,7.2063,672.7271408,,,"World Update 6 - Germany, Austria & Switzerland",,,,
Building,Drachenfels Castle,,50.664661,7.210361,960.0089473,,,"World Update 6 - Germany, Austria & Switzerland",,,,
Building,Eggenberg Palace,,47.073906,15.391358,1228.922686,,,"World Update 6 - Germany, Austria & Switzerland",,,,
Building,Einsiedeln Abbey,,47.126758,8.751708,2972.283446,,,"World Update 6 - Germany, Austria & Switzerland",,,,
Building,Elbphilharmonie,,53.541344,9.984075,5.429153776,,,"World Update 6 - Germany, Austria & Switzerland",,,,
Building,Ernst-Happel-Stadion,,48.207219,16.420933,522.1658408,,,"World Update 6 - Germany, Austria & Switzerland",,,,
Building,Fehmarn Sound Bridge,,54.401719,11.112686,0,,,"World Update 6 - Germany, Austria & Switzerland",,,,
Building,Frankfurt Cathedral,,50.110678,8.685383,331.4872407,,,"World Update 6 - Germany, Austria & Switzerland",,,,
Building,Frauenkirche,,51.051942,13.741589,377.567008,,,"World Update 6 - Germany, Austria & Switzerland",,,,
Building,Freiburger Minster,,47.995672,7.85215,924.2202774,,,"World Update 6 - Germany, Austria & Switzerland",,,,
Building,Great St. Martin's Church,,50.938508,6.961642,171.7090536,,,"World Update 6 - Germany, Austria & Switzerland",,,,
Building,Green Citadel,,52.126969,11.634264,192.5691156,,,"World Update 6 - Germany, Austria & Switzerland",,,,
Building,Groß Raden Archaeological Open Air Museum,,53.737,11.8784,34.22543868,,,"World Update 6 - Germany, Austria & Switzerland",,,,
Building,Grossmünster,,47.370189,8.544214,1373.767947,,,"World Update 6 - Germany, Austria & Switzerland",,,,
Building,Hermannsdenkmal,,51.911658,8.839472,1264.782143,,,"World Update 6 - Germany, Austria & Switzerland",,,,
Building,Hofburg Wien,,48.205411,16.364789,595.8430664,,,"World Update 6 - Germany, Austria & Switzerland",,,,
Building,Hohenwerfen Castle,,47.482844,13.188833,2058.916133,,,"World Update 6 - Germany, Austria & Switzerland",,,,
Building,Hohenzollern Bridge,,50.941436,6.9657,127.95276,,,"World Update 6 - Germany, Austria & Switzerland",,,,
Building,Hohenzollern Castle,,48.323581,8.967378,2695.402096,,,"World Update 6 - Germany, Austria & Switzerland",,,,
Building,Kapellbrücke,,47.051661,8.307553,1437.391392,,,"World Update 6 - Germany, Austria & Switzerland",,,,
Building,Kath. Hofkirche,,51.053489,13.737344,371.2564873,,,"World Update 6 - Germany, Austria & Switzerland",,,,
Building,Katz Castle,,50.152189,7.723889,439.94114,,,"World Update 6 - Germany, Austria & Switzerland",,,,
Building,Kufstein Fortress,,47.581272,12.169458,1633.400857,,,"World Update 6 - Germany, Austria & Switzerland",,,,
Building,Kybunpark,,47.408258,9.305544,2137.056955,,,"World Update 6 - Germany, Austria & Switzerland",,,,
Building,Kyffhäuserdenkmal,,51.413283,11.108572,1432.283002,,,"World Update 6 - Germany, Austria & Switzerland",,,,
Building,Landwasser Viaduct,,46.680878,9.6764,3290.317671,,,"World Update 6 - Germany, Austria & Switzerland",,,,
Building,Lausanne Cathedral,,46.522614,6.635303,1743.624285,,,"World Update 6 - Germany, Austria & Switzerland",,,,
Building,Letzigrund,,47.382725,8.50375,1315.620745,,,"World Update 6 - Germany, Austria & Switzerland",,,,
Building,Magdeburg Cathedral,,52.124731,11.633956,188.4809439,,,"World Update 6 - Germany, Austria & Switzerland",,,,
Building,Marienburg Castle,,52.172264,9.766794,430.4460478,,,"World Update 6 - Germany, Austria & Switzerland",,,,
Building,Melk Abbey,,48.228361,15.331356,808.0277989,,,"World Update 6 - Germany, Austria & Switzerland",,,,
Building,Mercedes-Benz Arena,,48.792192,9.232025,718.3895191,,,"World Update 6 - Germany, Austria & Switzerland",,,,
Building,Merkur Spiel-Arena,,51.261692,6.733019,115.8519341,,,"World Update 6 - Germany, Austria & Switzerland",,,,
Building,Monument to the Battle of the Nations,,51.312344,12.413289,512.0747147,,,"World Update 6 - Germany, Austria & Switzerland",,,,
Building,Moritzburg Castle,,51.167556,13.679453,556.1958451,,,"World Update 6 - Germany, Austria & Switzerland",,,,
Building,Münster Cathedral,,51.963036,7.625497,201.700585,,,"World Update 6 - Germany, Austria & Switzerland",,,,
Building,Museum Holstentor,,53.866239,10.679617,10.52788818,,,"World Update 6 - Germany, Austria & Switzerland",,,,
Building,New Opera,,50.108278,8.674197,328.1129356,,,"World Update 6 - Germany, Austria & Switzerland",,,,
Building,Niederwalddenkmal,,49.9811,7.899808,1006.672108,,,"World Update 6 - Germany, Austria & Switzerland",,,,
Building,Olympiastadion Berlin,,52.514633,13.239447,177.9991242,,,"World Update 6 - Germany, Austria & Switzerland",,,,
Building,Olympiastadion Munich,,48.173089,11.546544,1670.715906,,,"World Update 6 - Germany, Austria & Switzerland",,,,
Building,Rheinenergiestadion,,50.933522,6.874994,197.2098051,,,"World Update 6 - Germany, Austria & Switzerland",,,,
Building,Rheinsberg Palace,,53.098461,12.889469,187.00788,,,"World Update 6 - Germany, Austria & Switzerland",,,,
Building,Saar Polygon,,49.317986,6.785617,1081.331243,,,"World Update 6 - Germany, Austria & Switzerland",,,,
Building,Sanssouci and Park,,52.404189,13.038439,167.8615659,,,"World Update 6 - Germany, Austria & Switzerland",,,,
Building,Schwerin Castle,,53.6245,11.418775,143.790087,,,"World Update 6 - Germany, Austria & Switzerland",,,,
Building,Signal Iduna Park,,51.492586,7.451883,330.7903326,,,"World Update 6 - Germany, Austria & Switzerland",,,,
Building,South Bridge,,50.917064,6.973144,127.95276,,,"World Update 6 - Germany, Austria & Switzerland",,,,
Building,Sphinx Observatory,,46.547636,7.984961,11664.00937,,,"World Update 6 - Germany, Austria & Switzerland",,,,
Building,St. Bartholomew's Church,,47.544744,12.972028,1988.772559,,,"World Update 6 - Germany, Austria & Switzerland",,,,
Building,St. Jakob Park,,47.541622,7.62005,861.9052432,,,"World Update 6 - Germany, Austria & Switzerland",,,,
Building,St. Mary's Church,,54.310208,13.088122,31.53626475,,,"World Update 6 - Germany, Austria & Switzerland",,,,
Building,St. Nicholas Church (Stralsund),,54.315306,13.090775,35.57775704,,,"World Update 6 - Germany, Austria & Switzerland",,,,
Building,St. Nicholas Church (Wismar),,53.895561,11.465267,21.34374971,,,"World Update 6 - Germany, Austria & Switzerland",,,,
Building,St. Stephan's Cathedral,,48.20855,16.373011,565.248092,,,"World Update 6 - Germany, Austria & Switzerland",,,,
Building,Stade de Geneve,,46.177822,6.127489,1273.135829,,,"World Update 6 - Germany, Austria & Switzerland",,,,
Building,Stade de Maladiere,,46.995178,6.944133,1420.12453,,,"World Update 6 - Germany, Austria & Switzerland",,,,
Building,Stadion Wankdorf,,46.963092,7.464831,1823.646223,,,"World Update 6 - Germany, Austria & Switzerland",,,,
Building,State Museum of Pre-History,,51.498239,11.962381,329.8975832,,,"World Update 6 - Germany, Austria & Switzerland",,,,
Building,Swiss National Museum,,47.379389,8.540267,1334.283426,,,"World Update 6 - Germany, Austria & Switzerland",,,,
Building,Swissporarena,,47.032933,8.305139,1481.840326,,,"World Update 6 - Germany, Austria & Switzerland",,,,
Building,Tarasp Castle,,46.778928,10.261667,4911.298534,,,"World Update 6 - Germany, Austria & Switzerland",,,,
Building,The Parliament Building,,52.518603,13.376114,117.0419871,,,"World Update 6 - Germany, Austria & Switzerland",,,,
Building,Tropical Island Resort,,52.038972,13.747939,532.9529239,,,"World Update 6 - Germany, Austria & Switzerland",,,,
Building,Veltins-Arena,,51.554597,7.067561,184.8405737,,,"World Update 6 - Germany, Austria & Switzerland",,,,
Building,Volksparkstadion,,53.587164,9.898592,72.16956277,,,"World Update 6 - Germany, Austria & Switzerland",,,,
Building,Walhalla,,49.031347,12.224081,1319.882092,,,"World Update 6 - Germany, Austria & Switzerland",,,,
Building,Wartburg,,50.966581,10.306344,1274.228375,,,"World Update 6 - Germany, Austria & Switzerland",,,,
Building,Wernigerode Castle,,51.830561,10.794967,1094.962528,,,"World Update 6 - Germany, Austria & Switzerland",,,,
Building,Wiener Riesenrad,,48.216639,16.395911,537.7021221,,,"World Update 6 - Germany, Austria & Switzerland",,,,
Building,Wörthersee Stadion,,46.608936,14.278333,1449.677121,,,"World Update 6 - Germany, Austria & Switzerland",,,,
Building,Zentrum Paul Klee,,46.9488,7.474211,1884.776699,,,"World Update 6 - Germany, Austria & Switzerland",,,,
Building,Zollverein Coal Mine Industrial Complex,,51.487042,7.043964,164.2037116,,,"World Update 6 - Germany, Austria & Switzerland",,,,
Landform,Heligoland,,54.181372,7.882958,143.959045,,,"World Update 6 - Germany, Austria & Switzerland",,,,
Landform,Jasmund National Park,,54.549586,13.678528,0,,,"World Update 6 - Germany, Austria & Switzerland",,,,
Park,Herrenhäuser Garten,,52.390347,9.697453,170.1849519,,,"World Update 6 - Germany, Austria & Switzerland",,,,
Settlement,Basel,,47.5595986,7.5885761,839.2486941,,,"World Update 6 - Germany, Austria & Switzerland",,,,
Settlement,Bielefeld,,52.0302285,8.5324708,391.2865021,,,"World Update 6 - Germany, Austria & Switzerland",,,,
Settlement,Brunswick (Germany),,52.2688736,10.5267696,235.0883859,,,"World Update 6 - Germany, Austria & Switzerland",,,,
Settlement,Graz,,47.070714,15.439504,1167.031874,,,"World Update 6 - Germany, Austria & Switzerland",,,,
Settlement,Konstanz,,47.6779496,9.1732384,1361.367177,,,"World Update 6 - Germany, Austria & Switzerland",,,,
Settlement,Wuppertal,,51.2562128,7.1507636,487.7822511,,,"World Update 6 - Germany, Austria & Switzerland",,,,
